STABR,FSCSKEY,LIBID,LIBNAME,ADDRESS,CITY,ZIP,CNTY,PHONE,C_RELATN,C_LEGBAS,C_ADMIN,C_FSCS,GEOCODE,LSABOUND,STARTDAT,ENDDATE,POPU_LSA,POPU_UND,CENTLIB,BRANLIB,BKMOB,TOTSTAFF,BKVOL,EBOOK,AUDIO_PH,AUDIO_DL,VIDEO_PH,VIDEO_DL,EC_LO_OT,SUBSCRIP,HRS_OPEN,VISITS,REFERENC,REGBOR,TOTCIR,KIDCIRCL,TOTPRO,GPTERMS,PITUSR,WIFISESS,OBEREG,STATSTRU,STATNAME,STATADDR,LONGITUD,LATITUDE
AK,AK0001,AK0001-002,ANCHOR POINT PUBLIC LIBRARY,34020 NORTH FORK ROAD,ANCHOR POINT,99556,KENAI PENINSULA,9072355692,NO,NP,SO,Y,CI1,N,7/1/15,6/30/16,2043,2025,1,0,0,0.67,17453,0,97,0,3915,0,0,11,1404,6679,500,1503,13214,3705,10,7,1435,1053,08,00,00,00,-151.831591,59.779667
AK,AK0002,AK0002-011,ANCHORAGE PUBLIC LIBRARY,3600 DENALI STREET,ANCHORAGE,99503,ANCHORAGE,9073432892,NO,CO,MO,Y,MA1,N,1/1/15,12/31/15,299037,296338,1,4,0,78.2,367652,13694,37639,47992,66509,0,14,727,10608,860751,67785,100065,1831505,531712,1898,162,130431,22549,08,00,00,00,-149.876735,61.187512
AK,AK0003,AK0003-002,ANDERSON COMMUNITY LIBRARY,101 FIRST STREET,ANDERSON,99744,DENALI,9075822628,NO,CI,SO,Y,CI1,N,7/1/15,6/30/16,238,236,1,0,0,0.75,15708,0,68,0,1337,0,0,0,480,1145,340,154,640,0,1,5,210,0,08,00,00,00,-149.174471,64.343714
AK,AK0006,AK0006-002,KUSKOKWIM CONSORTIUM LIBRARY,420 CHIEF EDDIE HOFFMAN HIGHWAY,BETHEL,99559,BETHEL,9075434516,NO,MJ,SO,Y,CI1,N,7/1/15,6/30/16,6244,6188,1,0,0,2.5,33200,13694,317,8657,2475,0,128,48,1200,44775,1500,1657,11378,2757,173,8,6600,-1,08,00,00,00,-161.771006,60.791148
AK,AK0007,AK0007-002,BIG LAKE PUBLIC LIBRARY,3140 SOUTH BIG LAKE ROAD,BIG LAKE,99652,MATANUSKA-SUSITNA,9078617635,NO,CO,SO,Y,CO1,N,7/1/15,6/30/16,10259,10166,1,0,0,3,26311,13696,2020,8657,3360,0,0,53,2551,62283,466,2823,41094,17572,391,21,11638,5720,08,00,00,00,-149.818642,61.547268
AK,AK0008,AK0008-002,CANTWELL COMMUNITY LIBRARY,1 SCHOOL ROAD,CANTWELL,99729,DENALI,9077682372,NO,NP,SO,Y,CI1,N,7/1/15,6/30/16,198,196,1,0,0,0.8,9787,13694,223,0,348,0,0,12,510,3205,375,164,3150,1375,37,1,60,510,08,00,00,00,-148.792318,63.638156
AK,AK0011,AK0011-002,CHINIAK PUBLIC LIBRARY,43318 SPRUCE WAY,CHINIAK,99615,KODIAK ISLAND,9075120880,NO,NP,SO,N,CI1,N,7/1/15,6/30/16,46,46,1,0,0,0,1000,0,0,0,200,0,0,0,144,337,6,55,206,106,0,2,75,240,08,00,00,00,-152.234562,57.612147
AK,AK0014,AK0014-002,COLD BAY PUBLIC LIBRARY,10 BARANOV ROAD,COLD BAY,99571,ALEUTIANS EAST,9075322878,NO,NP,SO,N,CI1,N,7/1/15,6/30/16,59,58,1,0,0,0,6980,5,172,0,3700,0,0,12,600,996,50,87,845,228,30,5,523,327,08,00,00,00,-162.709803,55.207101
AK,AK0015,AK0015-002,COOPER LANDING COMMUNITY LIBRARY,18511 BEAN CREEK ROAD,COOPER LANDING,99572,KENAI PENINSULA,9075951241,NO,NP,SO,N,CI1,N,7/1/15,6/30/16,250,248,1,0,0,0,3738,0,192,0,853,0,0,1,1092,2765,150,489,2519,1034,46,4,382,295,08,00,00,15,-149.824176,60.493891
AK,AK0016,AK0016-002,CORDOVA PUBLIC LIBRARY,601 FIRST STREET,CORDOVA,99574,VALDEZ-CORDOVA,9074246667,NO,CI,SO,Y,CI1,N,1/1/15,12/31/15,2321,2300,1,0,0,5.5,17813,13694,602,8440,1250,0,0,31,2587,18374,1993,2386,13706,426,212,5,5073,3451,08,00,00,15,-145.758687,60.544525
AK,AK0017,AK0017-003,CRAIG PUBLIC LIBRARY,504 THIRD STREET,CRAIG,99921,PR WALES-OUTER KE,9078263281,NO,CI,SO,Y,CI1,N,7/1/15,6/30/16,1102,1092,1,0,0,1.6,11441,13694,300,8440,3902,0,0,70,1636,20254,2392,2437,25302,7477,136,4,4069,2563,08,00,00,00,-133.148393,55.474758
AK,AK0018,AK0018-002,IPNATCHIAQ LIBRARY,59 MAIN STREET,DEERING,99736,NORTHWEST ARCTIC,9073632136,NO,CI,SO,Y,CI1,N,7/1/15,6/30/16,135,134,1,0,0,0.29,-1,-1,425,-1,344,-1,-1,2,1297,276,328,33,-1,33,10,0,0,-1,08,00,00,00,-163.490055,65.822284
AK,AK0019,AK0019-002,DELTA COMMUNITY LIBRARY,2291 DEBORAH STREET,DELTA JUNCTION,99737,SE FAIRBANK,9078954102,NO,CI,SO,Y,CI1,N,7/1/15,6/30/16,1130,1120,1,0,0,2.8,11638,13694,692,8657,4050,0,1,10,2496,49601,1200,6245,56460,8269,144,7,8553,22500,08,00,00,00,-145.734637,64.04679
AK,AK0020,AK0020-002,DILLINGHAM PUBLIC LIBRARY,306 D STREET WEST,DILLINGHAM,99576,DILLINGHAM,9078425610,NO,CI,SO,Y,CI1,N,7/1/15,6/30/16,2316,2295,1,0,0,1.7,25752,13694,1044,8657,5605,0,0,34,1968,35184,2433,1961,36704,335,314,10,8697,8858,08,00,00,00,-158.463822,59.040686
AK,AK0021,AK0021-002,EAGLE PUBLIC LIBRARY,4TH & AMUNDSEN,EAGLE,99738,SE FAIRBANK,9075472334,NO,NP,SO,Y,CI1,N,7/1/15,6/30/16,79,78,1,0,0,0.88,8977,13694,732,8657,3619,0,0,42,713,2432,70,287,36074,12,24,7,1731,986,08,00,00,00,-141.202641,64.787109
AK,AK0023,AK0023-002,FAIRBANKS NORTH STAR BOROUGH PUBLIC LIBRARIES,1215 COWLES STREET,FAIRBANKS,99701,FAIRBANKS NORTH STAR,9074591022,NO,CO,MO,Y,CO1,N,7/1/15,6/30/16,98645,97755,1,1,1,47.6,313538,22497,24599,17171,37846,0,21,610,7176,456170,75480,50925,671764,246490,908,43,53224,192142,08,00,00,00,-147.738638,64.838451
AK,AK0025,AK0025-002,CHARLES EVANS COMMUNITY/SCHOOL LIBRARY,299 ANTOSKI ROAD,GALENA,99741,YUKON-KOYUKUK,9076561883,NO,CI,SO,Y,CI1,N,7/1/15,6/30/16,488,484,1,0,0,0.38,9542,0,0,0,638,0,0,43,750,3101,125,551,5901,2087,238,2,493,0,08,00,00,00,-156.88152,64.749499
AK,AK0027,AK0027-002,COPPER VALLEY COMMUNITY LIBRARY,MILE 186 GLENN HIGHWAY,GLENNALLEN,99588,VALDEZ-CORDOVA,9078225427,NO,NP,SO,N,CI1,N,7/1/15,6/30/16,459,455,1,0,0,0,19391,13694,763,0,2987,0,0,12,1556,8996,3328,670,12980,4495,97,6,10868,10868,08,00,00,00,-145.561269,62.10946
AK,AK0028,AK0028-002,GUSTAVUS PUBLIC LIBRARY,14 GUSTAVUS ROAD,GUSTAVUS,99826,SKAGWAY-ANGOON,9076972350,NO,CI,SO,Y,CI1,N,7/1/15,6/30/16,558,553,1,0,0,1,14887,13694,251,8440,1828,0,0,21,1300,10716,300,781,12640,3122,275,5,1910,2110,08,00,00,00,-135.72554,58.412632
AK,AK0029,AK0029-002,HAINES BOROUGH PUBLIC LIBRARY,111 THIRD AVENUE SOUTH,HAINES,99827,HAINES,9077662545,NO,CO,SO,Y,CO1,N,7/1/15,6/30/16,2466,2444,1,0,0,5.84,33301,17451,2263,10114,5206,0,0,97,3120,90616,6235,2320,97670,28611,607,12,20819,26259,08,00,00,00,-135.447976,59.233451
AK,AK0030,AK0030-002,TRI-VALLEY COMMUNITY LIBRARY,400 SUNTRANA STREET,HEALY,99743,DENALI,9076832507,NO,NP,SO,Y,CI1,N,7/1/15,6/30/16,1074,1064,1,0,0,0.5,26585,17451,650,10114,1783,0,0,17,1000,5144,550,973,16761,375,77,9,746,337,08,00,00,00,-149.01818,63.873445
AK,AK0031,AK0031-002,HOLLIS PUBLIC LIBRARY,NO. 1 HOLLIS CHILKAT ROAD,HOLLIS,99950,PR WALES-OUTER KE,9075307112,NO,NP,SO,N,CI1,N,7/1/15,6/30/16,112,111,1,0,0,0,17638,13694,154,0,955,0,1,13,1008,1612,180,509,1950,1,49,6,482,500,08,00,00,00,-132.951791,55.929205
AK,AK0032,AK0032-002,HOMER PUBLIC LIBRARY,500 HAZEL AVENUE,HOMER,99603,KENAI PENINSULA,9072353180,NO,CI,SO,Y,CI1,N,1/1/15,12/31/15,5252,5205,1,0,0,8.73,40823,12684,1384,10114,3552,0,8,158,2704,135957,18772,10012,147088,47932,332,23,29065,20341,08,00,00,00,-151.531835,59.643586
AK,AK0033,AK0033-002,HOPE COMMUNITY LIBRARY,18487 A AVENUE,HOPE,99605,KENAI PENINSULA,9077823121,NO,NP,SO,N,CI1,N,7/1/15,6/30/16,201,199,1,0,0,0,6384,0,180,0,1610,0,0,4,1204,1970,300,174,2049,286,33,1,162,402,08,00,00,00,-149.64132,60.918742
AK,AK0035,AK0035-004,JUNEAU PUBLIC LIBRARIES,292 MARINE WAY,JUNEAU,99801,JUNEAU,9075860443,NO,CO,MO,Y,CO1,N,7/1/15,6/30/16,32739,32444,1,2,0,20.56,111245,10512,5468,11396,5662,0,6,382,7445,221660,59061,23980,228491,90036,601,71,55131,71383,08,00,00,00,-134.404544,58.298585
AK,AK0037,AK0037-002,KASILOF PUBLIC LIBRARY,58231 STERLING HIGHWAY,KASILOF,99610,KENAI PENINSULA,9072525886,NO,NP,SO,Y,CI1,N,7/1/15,6/30/16,532,527,1,0,0,0.4,13357,0,182,0,394,0,0,31,750,5760,576,157,5305,0,8,7,425,1536,08,00,00,00,-151.266222,60.308254
AK,AK0038,AK0038-002,KENAI COMMUNITY LIBRARY,163 MAIN STREET LOOP,KENAI,99611,KENAI PENINSULA,9072834378,NO,CI,SO,Y,CI1,N,7/1/15,6/30/16,7098,7034,1,0,0,8.1,76909,17451,1501,10114,4097,0,0,127,2954,93445,1210,12387,98662,27934,409,40,16359,73850,08,00,00,00,-151.246778,60.559232
AK,AK0039,AK0039-002,KETCHIKAN PUBLIC LIBRARY,1110 COPPER RIDGE LANE,KETCHIKAN,99901,KETCHIKAN GATEWAY,9072253331,NO,CO,SO,Y,CO1,N,1/1/15,12/31/15,13758,13634,1,0,0,11.08,58079,14344,5561,8733,6683,0,5,182,2906,90420,12500,7902,168102,84218,680,26,5864,4308,08,00,00,00,-131.651304,55.349012
AK,AK0040,AK0040-002,KODIAK PUBLIC LIBRARY,612 EGAN WAY,KODIAK,99615,KODIAK ISLAND,9074868686,NO,CI,SO,Y,CI2,N,7/1/15,6/30/16,13181,13062,1,0,0,7,70032,22741,3215,17973,2952,0,1,141,3432,181188,4368,9825,80355,34956,345,41,16563,13364,08,00,00,00,-152.397484,57.792622
AK,AK0041,AK0041-002,CHUKCHI CONSORTIUM LIBRARY,604 THIRD STREET,KOTZEBUE,99752,NORTHWEST ARCTIC,9074422410,NO,MJ,MO,Y,CI2,N,7/1/15,6/30/16,4142,4105,1,1,0,1.25,20276,0,273,0,2438,0,0,82,1800,23000,900,575,4881,491,16,18,1800,3100,08,00,00,00,-162.587344,66.899306
AK,AK0044,AK0044-002,MCGRATH COMMUNITY LIBRARY,249 F STREET,MCGRATH,99627,YUKON-KOYUKUK,9075243843,NO,NP,SO,Y,CI1,N,7/1/15,6/30/16,302,299,1,0,0,0.75,11083,13694,13,8657,930,0,0,20,1196,4136,598,332,4182,589,35,11,906,1825,08,00,00,00,-155.588852,62.949704
AK,AK0046,AK0046-002,CENTENNIAL LIBRARY,4TH & MILTON STREET,METLAKATLA,99926,PR WALES-OUTER KE,9078866000,NO,NL,SO,Y,CI1,N,7/1/15,6/30/16,1467,1454,1,0,0,1.75,13249,9773,146,10496,170,0,0,0,1000,1220,650,507,740,61,6,9,1443,0,08,00,00,00,-131.5752,55.128457
AK,AK0047,AK0047-004,MARTIN MONSEN REGIONAL LIBRARY,101 MAIN STREET,NAKNEK,99633,BRISTOL BAY,9072464465,NO,CO,MO,Y,CI2,N,7/1/15,6/30/16,874,866,1,1,0,3,14437,0,303,0,3484,0,0,16,3408,11173,283,457,9124,1822,42,11,3159,2871,08,00,00,00,-157.006441,58.734779
AK,AK0048,AK0048-002,NENANA PUBLIC LIBRARY,106 EAST SECOND STREET,NENANA,99760,YUKON-KOYUKUK,9078325812,NO,CI,SO,Y,CI1,N,7/1/15,6/30/16,381,378,1,0,0,1,8993,144,908,0,1885,0,1,10,1664,9932,572,569,13722,1251,106,8,3484,1300,08,00,00,00,-149.095578,64.562392
AK,AK0051,AK0051-002,NINILCHIK COMMUNITY LIBRARY,15850 STERLING HIGHWAY,NINILCHIK,99639,KENAI PENINSULA,9075673333,NO,NP,SO,Y,CI1,N,7/1/15,6/30/16,860,852,1,0,0,0.38,12291,13694,708,8657,2335,0,1,3,1456,4881,168,278,5256,936,13,6,967,534,08,00,00,00,-151.674982,60.04179
AK,AK0052,AK0052-002,KEGOAYAH KOZGA LIBRARY,100 WEST 7TH AVENUE,NOME,99762,NOME,9074436628,NO,CI,SO,Y,CI1,N,7/1/15,6/30/16,3777,3743,1,0,0,3,21088,13694,137,0,1474,0,0,37,2000,25000,1948,2295,17989,12118,115,6,8398,3000,08,00,00,07,-165.403861,64.497236
AK,AK0053,AK0053-002,NORTHWAY COMMUNITY/SCHOOL LIBRARY,496 NORTHWAY ROAD,NORTHWAY,99764,SE FAIRBANK,9077782310,NO,NP,SO,Y,CI1,N,7/1/15,6/30/16,66,65,1,0,0,0.27,-1,-1,193,-1,397,-1,-1,18,1297,413,43,69,-1,162,5,1,150,-1,08,00,00,00,-141.884183,62.960966
AK,AK0055,AK0055-002,PALMER PUBLIC LIBRARY,655 SOUTH VALLEY WAY,PALMER,99645,MATANUSKA-SUSITNA,9077611371,NO,CO,SO,Y,CO1,N,1/1/15,12/31/15,30067,29796,1,0,0,7.25,67637,13775,3338,8657,4284,0,0,42,2196,104021,19121,10174,148082,75064,381,27,16008,13605,08,00,00,00,-149.113009,61.599781
AK,AK0056,AK0056-002,PELICAN PUBLIC LIBRARY,166 SALMON WAY,PELICAN,99832,SKAGWAY-ANGOON,9077352500,NO,CI,SO,Y,CI1,N,7/1/15,6/30/16,140,139,1,0,0,0.7,10084,13694,300,0,3572,0,0,38,728,4766,63,361,3893,919,151,3,2700,3927,08,00,00,00,-136.227078,57.960305
AK,AK0057,AK0057-002,PETERSBURG PUBLIC LIBRARY,14 SOUTH SECOND STREET,PETERSBURG,99833,WRANGELL-PETERSBU,9077723349,NO,CI,SO,Y,CI1,N,7/1/15,6/30/16,3179,3150,1,0,0,3.8,24976,17451,1286,10114,10047,0,1,110,2912,80565,4200,5450,120845,30500,349,26,7200,9000,08,00,00,00,-132.95473,56.81128
AK,AK0058,AK0058-002,JESSIE WAKEFIELD MEMORIAL LIBRARY,207 SPRUCE DRIVE,PORT LIONS,99550,KODIAK ISLAND,9074542288,NO,CI,SO,Y,CI1,N,7/1/15,6/30/16,177,175,1,0,0,0.38,10487,111,238,53,1398,24,0,20,780,2795,258,179,2934,336,172,5,2221,1000,08,00,00,00,-152.883859,57.866332
AK,AK0061,AK0061-002,ST. PAUL ISLAND SCHOOL/COMMUNITY LIBRARY,930 TOLSTOI BOULEVARD,ST. PAUL,99660,ALEUTIANS WEST,9075463334,NO,MJ,SO,Y,CI1,N,7/1/15,6/30/16,397,393,1,0,0,1,13710,6,52,0,820,0,2,41,960,3240,275,329,2689,0,44,14,1536,1700,08,00,00,00,-170.283949,57.12614
AK,AK0064,AK0064-002,SELDOVIA PUBLIC LIBRARY,260 SELDOVIA STREET,SELDOVIA,99663,KENAI PENINSULA,9072347662,NO,NP,SO,Y,CI1,N,7/1/15,6/30/16,206,204,1,0,0,0.42,9590,0,605,0,2397,0,0,17,887,3966,192,448,4931,1079,49,9,628,552,08,00,00,00,-151.714654,59.438738
AK,AK0065,AK0065-002,SEWARD COMMUNITY LIBRARY AND MUSEUM,239 6TH AVENUE,SEWARD,99664,KENAI PENINSULA,9072244082,NO,CI,SO,Y,CI1,N,1/1/15,12/31/15,2663,2639,1,0,0,4.5,18111,13694,1315,8657,3466,0,1,68,2604,78644,1248,7542,51476,14704,230,14,12676,15452,08,00,00,00,-149.437275,60.102509
AK,AK0067,AK0067-002,SITKA PUBLIC LIBRARY,320 HARBOR DRIVE,SITKA,99835,SITKA,9077478708,NO,CO,SO,Y,CO1,N,7/1/15,6/30/16,8920,8840,1,0,0,7.8,56357,17451,3924,10114,4321,0,2,150,3102,126417,4982,12559,104255,44585,251,11,32463,52000,08,00,06,00,-135.334131,57.049692
AK,AK0068,AK0068-002,SKAGWAY PUBLIC LIBRARY,769 STATE STREET,SKAGWAY,99840,SKAGWAY-ANGOON,9079832665,NO,CI,SO,Y,CI1,N,7/1/15,6/30/16,1004,995,1,0,0,1.8,7684,13694,157,0,2895,0,0,52,2660,23424,1122,1673,15536,64,80,5,6312,0,08,00,00,00,-135.313851,59.457578
AK,AK0069,AK0069-002,JOYCE K. CARVER MEMORIAL SOLDOTNA PUBLIC LIBRARY,235 NORTH BINKLEY ST.,SOLDOTNA,99669,KENAI PENINSULA,9072624227,NO,CI,SO,Y,CI1,N,7/1/15,6/30/16,4376,4337,1,0,0,6.54,41496,17451,157,10114,3056,0,1,101,2704,106405,3674,9644,133635,60355,523,14,17137,20311,08,00,00,00,-151.072406,60.492329
AK,AK0070,AK0070-002,SUTTON PUBLIC LIBRARY,11301 NORTH CHICKALOON WAY,SUTTON,99674,MATANUSKA-SUSITNA,9078617640,NO,CO,SO,Y,CO1,N,7/1/15,6/30/16,3930,3895,1,0,0,1.75,15358,13696,890,8657,1799,0,0,35,2132,20682,729,1070,15580,5499,258,8,3518,2330,08,00,06,00,-148.877393,61.71099
AK,AK0072,AK0072-002,TALKEETNA PUBLIC LIBRARY,24645 SOUTH TALKEETNA SPUR ROAD,TALKEETNA,99676,MATANUSKA-SUSITNA,9078617645,NO,CO,SO,Y,CO1,N,7/1/15,6/30/16,14271,14142,1,0,0,2.58,16685,17453,1644,10331,3176,0,0,44,2184,50605,2710,5715,83178,17719,149,13,5678,7108,08,00,00,00,-150.082461,62.298386
AK,AK0073,AK0073-002,TANANA COMMUNITY/SCHOOL LIBRARY,89 FRONT STREET,TANANA,99777,YUKON-KOYUKUK,9073667356,NO,NP,SO,Y,CI1,N,7/1/15,6/30/16,224,222,1,0,0,0.25,9460,107,250,0,620,0,0,37,420,1551,289,224,1826,270,49,3,1000,1200,08,00,00,00,-152.080839,65.170496
AK,AK0074,AK0074-002,DERMOTT O`TOOLE MEMORIAL LIBRARY,707 WEST TENAKEE AVENUE,TENAKEE SPRINGS,99841,SKAGWAY-ANGOON,9077362248,NO,CI,SO,Y,CI1,N,7/1/15,6/30/16,140,139,1,0,0,0.35,6875,0,0,8657,1416,0,0,2,720,1832,110,204,3193,1056,66,8,300,438,08,00,00,00,-135.210892,57.777428
AK,AK0075,AK0075-002,TOK COMMUNITY LIBRARY,MILE 1314 ALASKA HIGHWAY,TOK,99780,SE FAIRBANK,9078835623,NO,NP,SO,N,CI1,N,7/1/15,6/30/16,1239,1228,1,0,0,0,7032,13694,708,0,1163,0,0,0,1550,4720,376,310,3028,1017,3,7,1532,3000,08,00,00,00,-142.982127,63.335579
AK,AK0077,AK0077-002,VALDEZ CONSORTIUM LIBRARY,212 FAIRBANKS DRIVE,VALDEZ,99686,VALDEZ-CORDOVA,9078354632,NO,MJ,SO,Y,CI1,N,1/1/15,12/31/15,3939,3903,1,0,0,3.78,49647,13694,6349,8657,3966,0,239,101,2860,33114,21000,3402,28747,8205,68,11,4183,5466,08,00,00,00,-146.354509,61.129889
AK,AK0078,AK0078-002,WASILLA PUBLIC LIBRARY,391 NORTH MAIN STREET,WASILLA,99654,MATANUSKA-SUSITNA,9073765913,NO,CO,SO,Y,CO1,N,7/1/15,6/30/16,34729,34416,1,0,0,9.5,53772,17453,2298,10331,3533,0,0,66,2016,77797,3237,11125,161975,84584,223,7,13265,3156,08,00,00,00,-149.441433,61.58298
AK,AK0080,AK0080-002,WILLOW PUBLIC LIBRARY,23557 WEST WILLOW COMMUNITY CENTER,WILLOW,99688,MATANUSKA-SUSITNA,9078617655,NO,CO,SO,Y,CO1,N,7/1/15,6/30/16,6886,6824,1,0,0,2.53,23415,17451,1684,10114,2932,0,0,55,2392,34883,1247,2068,29993,7631,89,11,4964,7989,08,00,00,00,-150.043355,61.738182
AK,AK0081,AK0081-002,IRENE INGLE PUBLIC LIBRARY,124 SECOND STREET,WRANGELL,99929,WRANGELL,9078743535,NO,CO,SO,Y,CO1,N,7/1/15,6/30/16,2458,2436,1,0,0,2.27,36338,17451,503,10114,2330,0,1,67,1910,29042,3893,1580,37124,8499,60,9,4976,19708,08,00,00,00,-132.386964,56.473191
AK,AK0082,AK0082-002,AKIAK SCHOOL/COMMUNITY LIBRARY,1 KILBUCK ROAD,AKIAK,99552,BETHEL,9077654631,NO,NL,SO,Y,CI1,N,7/1/15,6/30/16,389,385,1,0,0,0.5,-1,-1,90,-1,580,-1,-1,38,1297,6190,460,328,-1,956,30,6,883,-1,08,00,00,00,-161.19229,60.885689
AK,AK0085,AK0085-002,FRANCES KIBBLE KENNY LAKE PUBLIC LIBRARY,MILE 5 EDGERTON HIGHWAY,KENNY LAKE,99573,VALDEZ-CORDOVA,9078223015,NO,NP,SO,N,CI1,N,7/1/15,6/30/16,302,299,1,0,0,0,8410,0,684,0,2934,0,0,5,768,2893,780,508,3070,745,62,4,376,500,08,00,00,00,-144.434771,61.577439
AK,AK0087,AK0087-002,KOYUK PUBLIC LIBRARY,3RD AND BIRCH STREET,KOYUK,99753,NOME,9079633971,NO,CI,SO,Y,CI1,N,7/1/15,6/30/16,333,330,1,0,0,0.26,-1,-1,50,-1,86,-1,-1,13,1297,2060,17,348,-1,818,25,3,756,-1,08,00,00,00,-161.166658,64.930677
AK,AK0091,AK0091-002,TULUKSAK SCHOOL/COMMUNITY LIBRARY,1 PHILLIP STREET,TULUKSAK,99679,BETHEL,9076955636,NO,NL,SO,Y,CI1,N,7/1/15,6/30/16,372,369,1,0,0,0.27,-1,-1,136,-1,590,-1,-1,25,1297,4075,441,314,-1,914,28,7,845,-1,08,00,00,00,-160.173565,60.735224
AK,AK0094,AK0094-010,TUZZY CONSORTIUM LIBRARY,5421 NORTH STAR STREET,BARROW,99723,NORTH SLOPE,9078524050,NO,MJ,MO,Y,CO1,N,7/1/15,6/30/16,7202,7137,1,7,0,11.65,53049,13694,1229,8440,9081,0,10,150,6417,75856,1845,3029,42014,1302,116,36,18201,9622,08,00,00,00,-156.745752,71.300053
AK,AK0095,AK0095-002,AKIACHAK SCHOOL/COMMUNITY LIBRARY,1 MAIN STREET,AKIACHAK,99551,BETHEL,9078253684,NO,NL,SO,Y,CI1,N,7/1/15,6/30/16,671,665,1,0,0,0.22,-1,-1,522,-1,587,-1,-1,13,1297,14444,498,647,-1,1649,51,3,1524,-1,08,00,00,00,-161.420534,60.900132
AK,AK0097,AK0097-002,ESTHER GREENWALD LIBRARY,366 GARTEENI HIGHWAY,HOONAH,99829,SKAGWAY-ANGOON,9079453611,NO,CI,SO,Y,CI1,N,7/1/15,6/30/16,783,776,1,0,0,1.51,-1,-1,86,-1,1031,-1,-1,8,1297,14832,625,992,-1,1924,69,14,1778,-1,08,00,00,00,-135.441601,58.108151
AK,AK0099,AK0099-002,MOOSE PASS PUBLIC LIBRARY,38100 DEPOT ROAD,MOOSE PASS,99631,KENAI PENINSULA,9072883111,NO,NP,SO,N,CI1,N,7/1/15,6/30/16,231,229,1,0,0,0,8882,0,67,8657,1218,0,0,0,500,850,250,235,613,323,96,3,75,200,08,00,00,00,-149.368807,60.487489
AK,AK0100,AK0100-002,TOP OF THE KUSKOKWIM COMMUNITY/SCHOOL LIBRARY,9127 MAIN STREET,NIKOLAI,99691,YUKON-KOYUKUK,9072932427,NO,CI,SO,Y,CI1,N,7/1/15,6/30/16,94,93,1,0,0,0.25,5170,48,190,0,120,0,0,14,480,1906,200,35,2155,0,100,5,550,360,08,00,00,00,-154.379787,63.01305
AK,AK0101,AK0101-002,SAND POINT COMMUNITY/SCHOOL LIBRARY,123 RED COVE ROAD,SAND POINT,99661,ALEUTIANS EAST,9073832393,NO,CI,SO,Y,CI1,N,7/1/15,6/30/16,860,852,1,0,0,0.4,-1,-1,0,-1,759,-1,-1,45,1297,0,1136,235,-1,2113,80,28,1953,-1,08,00,00,00,-160.480725,55.353509
AK,AK0102,AK0102-002,EGEGIK VILLAGE LIBRARY,289 AIRPORT ROAD,EGEGIK,99579,LAKE AND PENINSULA,9072332211,NO,NL,SO,Y,CI1,N,7/1/15,6/30/16,85,84,1,0,0,1,3353,29,39,0,1419,0,0,0,1008,350,40,30,398,35,0,2,200,600,08,00,00,00,-157.36269,58.202176
AK,AK0103,AK0103-002,TRAPPER CREEK PUBLIC LIBRARY,8901 EAST DEVONSHIRE DRIVE,TRAPPER CREEK,99683,MATANUSKA-SUSITNA,9078617650,NO,CO,SO,Y,CO1,N,7/1/15,6/30/16,2133,2114,1,0,0,1.08,13660,17453,1428,10331,2954,0,0,36,1300,6129,582,703,10229,2513,100,9,2306,1828,08,00,00,00,-150.239091,62.307225
AK,AK0104,AK0104-002,HOLY CROSS COMMUNITY/SCHOOL LIBRARY,210 MAIN STREET,HOLY CROSS,99602,YUKON-KOYUKUK,9074767131,NO,CI,SO,Y,CI1,N,7/1/15,6/30/16,155,154,1,0,0,0.25,6140,0,0,0,462,20,0,35,480,1020,240,182,1563,812,126,6,2200,0,08,00,00,00,-158.006185,62.453733
AK,AK0113,AK0113-002,OUZINKIE TRIBAL MEDIA CENTER,216 THIRD STREET,OUZINKIE,99644,KODIAK ISLAND,9076802323,NO,NL,SO,Y,CI1,N,7/1/15,6/30/16,159,158,1,0,0,0.87,2152,0,0,0,600,0,0,15,1820,3100,270,107,1838,678,28,8,2980,600,08,00,00,00,-152.498225,57.923854
AK,AK0114,AK0114-002,ST. GEORGE ISLAND SCHOOL/COMMUNITY LIBRARY,NO. 1 ELEMENTARY SCHOOL ROAD,ST. GEORGE,99591,ALEUTIANS WEST,9078592228,NO,MJ,SO,Y,CI1,N,7/1/15,6/30/16,72,71,1,0,0,0.25,5500,210,0,0,168,0,0,19,656,789,26,38,225,0,52,18,435,86,08,00,00,00,-169.583337,56.573269
AK,AK0115,AK0115-002,UNALASKA PUBLIC LIBRARY,64 ELEANOR DRIVE,UNALASKA,99685,ALEUTIANS WEST,9075815060,NO,CI,SO,Y,CI1,N,7/1/15,6/30/16,4448,4408,1,0,0,5,23738,17451,185,10114,6746,0,0,84,3484,41379,421,8893,76869,15545,164,15,15240,10000,08,00,00,00,-166.529918,53.870448
AK,AK0116,AK0116-002,ANIAK PUBLIC LIBRARY,270 RIVERFRONT DRIVE,ANIAK,99557,BETHEL,9076754435,NO,CI,SO,Y,CI1,N,7/1/15,6/30/16,517,512,1,0,0,0.3,2082,0,0,0,484,0,0,0,624,3380,156,517,1480,683,21,9,1560,1560,08,00,00,00,-155.110515,61.559455
AK,AK0117,AK0117-002,HYDER PUBLIC LIBRARY,50 MAIN STREET,HYDER,99923,PR WALES-OUTER,2506369169,NO,NP,SO,N,CI1,N,7/1/15,6/30/16,84,83,1,0,0,0,8558,0,3,0,1694,0,0,38,784,1452,126,75,2200,610,42,6,958,523,08,00,00,00,-130.025846,55.916565
AK,AK0120,AK0120-002,INNOKO RIVER COMMUNITY/SCHOOL AND TRIBAL LIBRARY,101 PINE STREET,SHAGELUK,99665,YUKON-KOYUKUK,9074738206,NO,CI,SO,N,CI1,N,7/1/15,6/30/16,77,76,1,0,0,0,4290,15,85,0,329,12,0,14,480,1624,400,71,488,355,74,3,900,700,08,00,00,00,-159.532798,62.655125
AK,AK0121,AK0121-002,BLACKWELL COMMUNITY/SCHOOL LIBRARY,100 WHITE SPRUCE TRAIL,ANVIK,99558,YUKON-KOYUKUK,9076636348,NO,CI,SO,N,CI1,N,7/1/15,6/30/16,77,76,1,0,0,0,4400,0,120,40,160,0,0,12,490,1025,100,75,606,0,25,5,1225,0,08,00,00,00,-160.202887,62.654917
AK,AK0122,AK0122-002,DAVID LOUIS COMMUNITY/SCHOOL LIBRARY,DAVID LOUIS SCHOOL BUILDING,GRAYLING,99590,YUKON-KOYUKUK,9074535135,NO,CI,SO,N,CI1,N,7/1/15,6/30/16,189,187,1,0,0,0,7578,0,10,0,230,0,0,0,480,200,20,187,175,141,87,4,125,0,08,00,00,00,-160.066131,62.901283
AK,AK0123,AK0123-001,KLAWOCK PUBLIC LIBRARY,615 NORTH PARK STREET,KLAWOCK,99925,PR WALES-OUTER,9077552261,NO,CI,SO,Y,CI1,N,7/1/15,6/30/16,820,813,1,0,0,0,-1,-1,0,-1,0,-1,-1,0,1297,0,0,1019,-1,0,0,0,0,-1,08,00,00,00,-133.098268,55.554462
AK,AK0124,AK0124-002,LAKE MINCHUMINA COMMUNITY LIBRARY,123 FRONT STREET,LAKE MINCHUMINA,99757,YUKON-KOYUKUK,9076743211,NO,NP,SO,N,CI1,N,7/1/15,6/30/16,11,11,1,0,0,0,4000,0,100,0,800,0,0,29,1500,1520,120,28,2080,100,33,2,600,1000,08,00,00,00,-152.313321,63.882287
AK,AK0126,AK0126-002,IGIUGIG TRIBAL LIBRARY,1 AIRPORT WAY,IGIUGIG,99613,LAKE AND PENINSULA,9075333211,NO,NL,SO,Y,CI1,N,7/1/15,6/30/16,53,53,1,0,0,0.8,10650,13694,108,8657,106,0,1,33,600,2000,750,92,1248,862,75,7,304,2063,08,00,00,00,-156.416252,58.705374
AK,AK0127,AK0127-002,COFFMAN COVE COMMUNITY LIBRARY,108 NW DENALI ALLEY,COFFMAN COVE,99918,PR WALES-OUTER KE,9073292233,NO,CI,SO,N,CI1,N,7/1/15,6/30/16,204,202,1,0,0,0,17244,13694,21,8440,261,0,0,10,1720,5824,2520,379,1582,199,115,4,1352,3640,08,00,00,00,-132.821075,56.00542
AK,AK0130,AK0130-002,THORNE BAY PUBLIC LIBRARY,120 FREEMAN DRIVE,THORNE BAY,99919,PR WALES-OUTER KE,9078283303,NO,CI,SO,Y,CI1,N,7/1/15,6/30/16,532,527,1,0,0,0.25,5057,13694,171,0,1269,0,0,18,1650,2683,247,419,3601,707,135,3,986,150,08,00,00,00,-132.527212,55.68625
AK,AK0134,AK0134-001,WHALE PASS COMMUNITY LIBRARY,BEACH ROAD LOT 3 BLOCK 14,WHALE PASS,99950,PR WALES-OUTER KE,9078465226,NO,CI,SO,N,CI1,N,7/1/15,6/30/16,45,45,1,0,0,0,6681,0,120,0,2268,0,0,27,621,2521,213,247,12882,0,43,4,648,634,08,00,00,00,-132.951791,55.929205
AK,AK0135,AK0135-001,TOGIAK PUBLIC LIBRARY AND CULTURAL CENTER,2ND AND MAIN STREET,TOGIAK,99678,DILLINGHAM,9074935566,NO,NP,SO,Y,CI1,N,7/1/15,6/30/16,893,885,1,0,0,3,19600,45,0,0,200,0,0,3,1530,7123,395,352,2716,1778,14,12,6375,4125,08,00,00,00,-160.277271,59.075869
AK,AK0136,AK0136-001,SCAMMON BAY PUBLIC LIBRARY,103 MAIN STREET,SCAMMON BAY,99662,WADE HAMPTON,9075585400,NO,CI,SO,Y,CI1,N,7/1/15,6/30/16,528,523,1,0,0,0.32,-1,-1,40,-1,32,-1,-1,0,1297,485,13,552,-1,27,40,3,1199,-1,08,00,00,00,-165.583168,61.841926
AK,AK0137,AK0137-001,KLUKWAN COMMUNITY/SCHOOL LIBRARY,315 MISSION STREET,KLUKWAN,99827,HAINES,9077675551,NO,MJ,SO,Y,CI1,N,7/1/15,6/30/16,95,94,1,0,0,1.3,7065,0,108,0,1197,0,0,11,2340,1398,338,139,3929,1953,82,3,109,213,08,00,00,00,-135.894772,59.399439
AK,AK0138,AK0138-002,SHIRLY JACKSON COMMUNITY LIBRARY,175 LIBRARY DR,KAKE,99830,PETERSBURG,9077853741,NO,CI,SO,N,CI1,N,7/1/15,6/30/16,605,600,1,0,0,0,17147,17451,0,10114,0,0,0,0,480,389,480,163,524,186,29,5,244,14,08,02,00,00,-133.90822,56.95791
AK,AK0139,AK0139-002,SAMUEL B. FOSS LIBRARY,1 WATERFRONT WAY,PEDRO BAY,99647,LAKE AND PENINSULA,9078502225,NO,CI,SO,Y,CI1,N,7/1/15,6/30/16,32,32,1,0,0,0.63,3654,0,0,0,300,0,0,27,480,571,240,44,268,2,6,1,180,300,08,02,00,00,-154.178877,59.84342
AL,AL0001,100-000,CARL ELLIOTT REGIONAL LIBRARY SYSTEM,98 18TH STREET EAST,JASPER,35501,WALKER,2052212568,HQ,MJ,SO,N,MC1,N,10/1/15,9/30/16,65563,65563,1,0,0,3.2,0,32547,0,5821,0,169,0,0,2340,203058,27218,0,0,0,0,5,3858,-1,05,00,00,00,-87.274706,33.833476
AL,AL0002,100-001,ARLEY PUBLIC LIBRARY,6788 COUNTY ROAD 41,ARLEY,35541,WINSTON,2053870129,ME,CI,SO,Y,CI1,N,10/1/15,9/30/16,356,356,1,0,0,1,10078,32547,470,5821,390,169,0,17,1820,4836,1614,2069,7633,1401,85,5,1662,976,05,00,00,00,-87.212402,34.078477
AL,AL0005,100-004,DOUBLE SPRINGS PUBLIC LIBRARY,637 BLAKE DRIVE,DOUBLE SPRINGS,35553,WINSTON,2054892412,ME,CI,SO,Y,CI1,N,10/1/15,9/30/16,1068,1068,1,0,0,1.6,11567,32547,8,5821,10,169,0,2,2210,7189,4419,1734,5010,984,26,5,1942,873,05,00,00,00,-87.388669,34.148291
AL,AL0006,100-005,HALEYVILLE PUBLIC LIBRARY,913 20TH STREET,HALEYVILLE,35565,WINSTON,2054867450,ME,CI,SO,Y,CI1,N,10/1/15,9/30/16,4122,4122,1,0,0,2,12879,32547,131,5821,308,169,0,42,2496,9237,1940,3871,11338,2901,14,6,3523,625,05,00,00,00,-87.62361,34.226302
AL,AL0007,100-006,JASPER PUBLIC LIBRARY,98 EAST 18TH STREET,JASPER,35501,WALKER,2052218512,ME,CI,SO,Y,CI1,N,10/1/15,9/30/16,14109,14109,1,0,0,5.3,65035,32547,577,5821,2916,169,0,41,2080,46320,13311,16824,62902,14260,78,16,9335,2834,05,00,00,00,-87.286206,33.832865
AL,AL0009,100-008,SUMITON PUBLIC LIBRARY,416 STATE STREET,SUMITON,35148,WALKER,2056487451,ME,CI,SO,Y,CI1,N,10/1/15,9/30/16,2423,2423,1,0,0,1.55,11116,32547,116,5821,387,169,0,4,2340,4402,3315,3054,6282,1666,46,5,1996,359,05,00,00,00,-87.049495,33.753449
AL,AL0010,101-000,CHEAHA REGIONAL LIBRARY,935 COLEMAN STREET,HEFLIN,36264,CLEBURNE,2564637125,HQ,MJ,MA,Y,MC2,N,10/1/15,9/30/16,99660,99660,1,0,2,2,21374,9300,2745,3045,602,20,1,2,3560,2760,635,6721,102539,21939,7,5,300,-1,05,00,00,00,-85.589062,33.643807
AL,AL0011,101-001,ROANOKE - ANNIE L. AWBREY PUBLIC LIBRARY,736 COLLEGE STREET,ROANOKE,36274,RANDOLPH,3348632632,ME,CI,SO,Y,CI1,N,10/1/15,9/30/16,5970,5970,1,0,0,2,16886,0,364,0,254,0,0,0,2236,30188,3566,7841,20491,6615,154,18,32888,24335,05,00,00,00,-85.370499,33.149525
AL,AL0012,101-002,ASHLAND CITY PUBLIC LIBRARY,11 2ND AVENUE NORTH,ASHLAND,36251,CLAY,2563543427,ME,CI,SO,Y,CI1,N,10/1/15,9/30/16,1984,1984,1,0,0,2,23897,32547,492,5821,1503,169,0,0,2080,11748,630,979,12528,5900,87,8,3910,224,05,00,00,00,-85.837805,33.274805
AL,AL0013,999-028,SYLACAUGA - B. B. COMER MEMORIAL LIBRARY,314 NORTH BROADWAY AVENUE,SYLACAUGA,35150,TALLADEGA,2562490961,NO,CI,SO,Y,CI1,N,10/1/15,9/30/16,12703,12703,1,0,0,14.2,103722,28636,1260,5863,122,169,2,100,2600,54610,15132,31671,169494,56797,323,49,13153,1904,05,00,00,00,-86.250722,33.171817
AL,AL0014,101-004,CHEROKEE COUNTY PUBLIC LIBRARY,310 MARY STREET,CENTRE,35960,CHEROKEE,2569275838,ME,CO,SO,Y,CO1,N,10/1/15,9/30/16,3595,3595,1,0,0,2.8,29613,1142,894,283,11,0,1,30,1977,41001,9209,12439,90616,10477,285,22,8889,3005,05,00,00,00,-85.676378,34.149417
AL,AL0015,101-005,CHILDERSBURG - EARLE A. RAINWATER MEMORIAL LIBRARY,124 NINTH AVENUE SW,CHILDERSBURG,35044,TALLADEGA,2563787239,ME,CI,SO,Y,CI1,N,10/1/15,9/30/16,5068,5068,1,0,0,5,58351,32547,1576,5821,1458,169,1,20,2490,36538,1500,13942,27850,9544,47,19,8725,370,05,00,00,00,-86.355697,33.277698
AL,AL0016,101-006,LINCOLN PUBLIC LIBRARY,47475 US HWY 78,LINCOLN,35096,TALLADEGA,2057634080,ME,CI,SO,Y,CI1,N,10/1/15,9/30/16,6438,6438,1,0,0,3,16558,86,171,0,81,0,2,15,2150,10232,9632,4363,10797,5570,68,15,8123,3912,05,00,00,00,-86.123227,33.603831
AL,AL0017,101-007,LINEVILLE PUBLIC LIBRARY,60119 HIGHWAY 49,LINEVILLE,36266,CLAY,2563965162,ME,CI,SO,Y,CI1,N,10/1/15,9/30/16,2321,2321,1,0,0,1,17057,0,551,0,123,0,1,2,1750,3568,892,3017,6289,657,9,4,621,0,05,00,00,00,-85.754445,33.310882
AL,AL0018,101-008,HEFLIN - LUCILE L. MORGAN PUBLIC LIBRARY,541 ROSS STREET,HEFLIN,36264,CLEBURNE,2564632259,ME,CI,SO,Y,CI1,N,10/1/15,9/30/16,3517,3517,1,0,0,0.55,17585,8418,326,0,1204,0,1,20,1214,6680,654,5250,6660,2352,2,7,2389,217,05,00,00,00,-85.587851,33.643877
AL,AL0019,101-009,OXFORD PUBLIC LIBRARY,110 EAST 6TH STREET,OXFORD,36203,CALHOUN,2568311750,ME,CI,SO,Y,CI1,N,10/1/15,9/30/16,21155,21155,1,0,0,8,54534,25739,3732,2037,3308,167,1,25,2236,41000,3500,22093,60800,19898,453,53,24000,-1,05,00,00,00,-85.835449,33.609693
AL,AL0020,999-070,TALLADEGA - ARMSTRONG-OSBORNE PUBLIC LIBRARY,202 SOUTH STREET EAST,TALLADEGA,35160,TALLADEGA,2563624211,NO,CI,SO,Y,CI1,N,10/1/15,9/30/16,16012,16012,1,0,0,7,125000,38704,1806,5822,130,51,1,144,2384,64220,86035,19352,68436,16442,777,29,12200,650,05,00,00,00,-86.099548,33.433166
AL,AL0022,999-033,ABBEVILLE MEMORIAL LIBRARY,301 KIRKLAND STREET,ABBEVILLE,36310,HENRY,3345852818,NO,CI,SO,Y,CI1,N,10/1/15,9/30/16,7557,7557,1,0,0,2.65,26254,28636,828,5863,757,169,0,34,2080,25067,5423,6748,22192,5496,54,19,9118,3142,05,00,00,00,-85.250422,31.567312
AL,AL0024,999-035,HEADLAND - BLANCHE R. SOLOMON MEMORIAL LIBRARY,17 PARK STREET,HEADLAND,36345,HENRY,3346932706,NO,CI,SO,Y,CI1,N,10/1/15,9/30/16,9633,9633,1,0,0,3,18061,28636,581,5863,677,169,1,35,2184,24685,6050,4666,24527,7615,94,22,5400,2400,05,00,00,00,-85.341845,31.35241
AL,AL0025,999-061,BRUNDIDGE - TUPPER LIGHTFOOT MEMORIAL LIBRARY,164 SOUTH MAIN STREET,BRUNDIDGE,36010,PIKE,3347352145,NO,CI,SO,Y,CI1,N,10/1/15,9/30/16,8126,8126,1,0,0,3.95,12682,32547,16,5821,820,169,1,37,2160,12935,1780,2899,13087,3679,145,15,3425,921,05,00,00,00,-85.815663,31.718815
AL,AL0026,999-079,OZARK - DALE COUNTY PUBLIC LIBRARY,416 JAMES STREET,OZARK,36360,DALE,3347745480,ME,MJ,SO,Y,CO2,N,10/1/15,9/30/16,37268,37268,1,0,0,7,63162,2405,1681,0,2741,0,0,119,2136,209913,9187,9548,87392,20590,560,41,34408,13270,05,00,00,00,-85.633363,31.452119
AL,AL0029,517-001,CLIO - ELTON B. STEPHENS LIBRARY,17 SCHOOL STREET,CLIO,36017,BARBOUR,3347334858,ME,CI,SO,Y,CI1,N,10/1/15,9/30/16,3826,3826,1,0,0,1,28280,0,200,0,150,0,0,0,1040,15000,0,1058,44073,3990,5,0,0,0,05,00,00,00,-85.469537,31.657268
AL,AL0030,517-003,LOUISVILLE PUBLIC LIBRARY,1951 MAIN STREET,LOUISVILLE,36048,BARBOUR,3342665210,ME,CI,SO,Y,CI1,N,10/1/15,9/30/16,2775,2775,1,0,0,0.6,4176,0,0,0,15,0,0,0,900,325,10,255,360,95,1,2,275,0,05,00,00,00,-85.555253,31.783934
AL,AL0031,999-077,MIDLAND CITY - MARY BERRY BROWN MEMORIAL LIBRARY,1318 HINTON WATERS AVENUE,MIDLAND CITY,36350,DALE,3349839999,ME,CI,SO,Y,CI1,N,10/1/15,9/30/16,2366,2366,1,0,0,2,9146,0,89,0,701,0,0,0,1800,11842,38,2767,3235,693,24,18,6621,2928,05,00,00,00,-85.49492,31.317963
AL,AL0032,999-078,NEWTON PUBLIC LIBRARY,209 OATES DRIVE,NEWTON,36352,DALE,3342993316,ME,CI,SO,Y,CI1,N,10/1/15,9/30/16,2108,2108,1,0,0,1,13207,0,0,0,56,0,0,0,1580,5382,145,805,17659,1287,3,8,975,0,05,00,00,00,-85.596315,31.331384
AL,AL0033,517-004,CLAYTON - TOWN AND COUNTY PUBLIC LIBRARY,45 NORTH MIDWAY STREET,CLAYTON,36016,BARBOUR,3347753506,ME,CI,SO,Y,CI2,N,10/1/15,9/30/16,5226,5226,1,0,0,0.63,16771,0,167,0,213,0,0,8,1035,5751,893,2585,2205,513,13,12,5125,1975,05,00,00,00,-85.449626,31.881386
AL,AL0034,999-060,TROY PUBLIC LIBRARY,500 EAST WALNUT STREET,TROY,36079,PIKE,3345661314,NO,CI,SO,Y,CO2,N,10/1/15,9/30/16,25263,25263,1,0,0,12,78083,25520,3597,4675,3093,167,2,88,2600,93211,29116,22416,216672,87285,77,16,8483,9193,05,00,00,00,-85.963571,31.808396
AL,AL0035,999-058,UNION SPRINGS PUBLIC LIBRARY,103 NORTH PRAIRIE STREET,UNION SPRINGS,36089,BULLOCK,3347382760,NO,MJ,SO,Y,CO1,N,10/1/15,9/30/16,10764,10764,1,0,0,1.5,13455,0,0,0,0,0,0,15,1348,8469,747,2375,2367,676,62,18,5772,409,05,00,00,00,-85.716194,32.143452
AL,AL0037,103-001,ANDALUSIA PUBLIC LIBRARY,212 SOUTH THREE NOTCH STREET,ANDALUSIA,36420,COVINGTON,3342226612,ME,CI,SO,Y,CI1,N,10/1/15,9/30/16,18319,18319,1,0,0,8,51853,0,1398,0,1597,0,2,0,2499,27991,38651,27772,46409,12390,162,31,24899,4723,05,00,00,00,-86.482962,31.30678
AL,AL0038,103-002,BRANTLEY PUBLIC LIBRARY,10 MLK DRIVE,BRANTLEY,36009,CRENSHAW,3345278624,NO,CI,SO,Y,CI1,N,10/1/15,9/30/16,3495,3495,1,0,0,2,6622,0,0,0,0,0,0,32,1100,3300,270,1725,14380,4730,6,4,1100,2150,05,00,00,00,-86.254862,31.586676
AL,AL0039,999-034,ELBA PUBLIC LIBRARY,406 SIMMONS STREET,ELBA,36323,COFFEE,3348976921,ME,CI,SO,Y,CI1,N,10/1/15,9/30/16,9666,9666,1,0,0,2,21160,26468,805,5478,816,167,0,30,2080,24682,1122,2548,19826,2591,190,10,2922,2808,05,00,00,00,-86.071414,31.414442
AL,AL0040,103-004,GENEVA - EMMA KNOX KENAN LIBRARY,312 SOUTH COMMERCE STREET,GENEVA,36340,GENEVA,3346842459,NO,CI,SO,Y,CI1,N,10/1/15,9/30/16,8386,8386,1,0,0,2.5,19254,70,170,0,709,0,0,52,1820,17600,5000,5124,7957,2141,12,4,3265,734,05,00,00,00,-85.865082,31.036391
AL,AL0041,999-041,ENTERPRISE PUBLIC LIBRARY,101 EAST GRUBBS STREET,ENTERPRISE,36330,COFFEE,3343472636,ME,CI,SO,Y,CO2,N,10/1/15,9/30/16,41243,41243,1,0,0,7.26,54050,34466,2548,5520,2368,167,0,5,2530,128191,8166,25733,80749,33029,387,24,14846,4753,05,00,00,00,-85.852727,31.313965
AL,AL0042,103-006,FLORALA PUBLIC LIBRARY,1214 FOURTH STREET,FLORALA,36442,COVINGTON,3348583525,ME,CI,SO,Y,CI1,N,10/1/15,9/30/16,6431,6431,1,0,0,1,18026,32547,327,5821,1653,169,0,31,1960,19683,485,3135,20495,3438,99,10,5157,287,05,00,00,00,-86.327157,31.005754
AL,AL0043,103-007,HARTFORD - MCGREGOR-MCKINNEY PUBLIC LIBRARY,101 EAST FULTON STREET,HARTFORD,36344,GENEVA,3345882384,NO,CI,SO,Y,CI1,N,10/1/15,9/30/16,6567,6567,1,0,0,2,22432,29205,1187,6760,584,169,0,40,2248,12401,1201,2150,26440,7914,69,10,4249,628,05,00,00,00,-85.696672,31.098262
AL,AL0044,103-008,LUVERNE PUBLIC LIBRARY,148 EAST THIRD STREET,LUVERNE,36049,CRENSHAW,3343355326,ME,CI,SO,Y,CO2,N,10/1/15,9/30/16,10482,10482,1,0,0,3,15782,26468,1789,5478,1374,167,2,26,1853,25095,2635,7800,39825,10111,189,14,4249,1000,05,00,00,00,-86.261319,31.716301
AL,AL0045,103-009,OPP PUBLIC LIBRARY,1604 NORTH MAIN STREET,OPP,36467,COVINGTON,3344936423,ME,CI,SO,Y,CI1,N,10/1/15,9/30/16,13164,13164,1,0,0,4,31512,126,820,0,686,0,0,21,2024,17183,187,2900,21132,7456,5,8,3562,54,05,00,00,00,-86.255,31.305442
AL,AL0046,103-010,SAMSON PUBLIC LIBRARY,200 NORTH JOHNSON STREET,SAMSON,36477,GENEVA,3348987806,NO,CI,SO,Y,CI1,N,10/1/15,9/30/16,5856,5856,1,0,0,0.95,8806,0,177,0,4,0,0,5,1454,4446,195,1275,4238,416,0,7,1719,0,05,00,00,00,-86.046009,31.116742
AL,AL0047,103-011,SLOCOMB PUBLIC LIBRARY,134 SOUTH DALTON AVENUE,SLOCOMB,36375,GENEVA,3348869009,NO,CI,SO,Y,CI1,N,10/1/15,9/30/16,5903,5903,1,0,0,1.5,8200,0,146,0,0,0,0,0,1020,4125,150,760,3380,1000,95,8,1700,0,05,00,00,00,-85.593662,31.107201
AL,AL0048,104-000,HORSESHOE BEND REGIONAL LIBRARY,207 NORTH WEST STREET,DADEVILLE,36853,TALLAPOOSA,2568259232,HQ,MJ,MA,Y,MC2,N,10/1/15,9/30/16,149365,149365,1,0,1,3.4,44138,0,966,0,344,0,0,7,2356,4625,120639,3901,36150,13757,237,2,396,-1,05,00,00,00,-85.765419,32.831585
AL,AL0049,104-001,ALEXANDER CITY - ADELIA MCCONNELL RUSSELL LIBRARY,318 CHURCH STREET,ALEXANDER CITY,35010,TALLAPOOSA,2563296796,ME,CI,MA,Y,CI1,N,10/1/15,9/30/16,14849,14849,1,1,0,10,28092,25515,1344,4706,1363,167,2,42,4992,55940,10617,10458,49161,17681,164,31,12073,-1,05,00,00,00,-85.953879,32.941382
AL,AL0050,104-002,DADEVILLE PUBLIC LIBRARY,205 NORTH WEST STREET,DADEVILLE,36853,TALLAPOOSA,2568257820,ME,CI,SO,Y,CO2,N,10/1/15,9/30/16,3184,3184,1,0,0,2.58,11915,28636,382,6023,971,169,0,13,1947,28164,2687,3816,15971,1510,91,10,4285,1813,05,00,00,00,-85.76542,32.831564
AL,AL0051,104-003,GOODWATER PUBLIC LIBRARY,36 WEOGUFKA STREET,GOODWATER,35072,COOSA,2568395741,ME,CI,SO,Y,CI1,N,10/1/15,9/30/16,1357,1357,1,0,0,1,17435,0,431,0,1841,0,0,36,2068,7951,1527,3241,2802,270,14,12,2972,-1,05,00,00,00,-86.054171,33.063714
AL,AL0052,104-004,AUBURN PUBLIC LIBRARY,749 EAST THACH AVENUE,AUBURN,36830,LEE,3345013190,ME,CI,SO,Y,CI1,N,10/1/15,9/30/16,60258,60258,1,0,0,20,51693,2315,3439,5601,5904,112,4,149,3459,194808,12436,28866,402227,183644,659,36,87201,-1,05,00,00,00,-85.465966,32.604455
AL,AL0053,104-005,OPELIKA - LEWIS COOPER JR. MEMORIAL LIBRARY,200 SOUTH 6TH STREET,OPELIKA,36801,LEE,3347055380,ME,CI,SO,Y,CI1,N,10/1/15,9/30/16,29171,29171,1,0,0,10,51826,29534,2827,5913,4206,173,2,47,3213,125002,3693,21149,138580,51195,143,27,32115,3475,05,00,00,00,-85.375884,32.649131
AL,AL0054,104-006,MILLBROOK PUBLIC LIBRARY,3650 GRANDVIEW ROAD,MILLBROOK,36054,ELMORE,3342856688,ME,CI,SO,Y,CI1,N,10/1/15,9/30/16,15169,15169,1,0,0,3,29967,28636,1180,5863,1318,169,3,43,2798,60125,7800,16792,90040,27638,74,23,19561,7925,05,00,00,00,-86.362231,32.476804
AL,AL0055,104-007,ROCKFORD PUBLIC LIBRARY,9688 US HWY 231,ROCKFORD,35136,COOSA,2563774911,ME,CI,SO,Y,CI1,N,10/1/15,9/30/16,449,449,1,0,0,1,4839,0,132,0,150,0,0,14,2550,1790,32,507,734,296,6,4,465,31,05,00,00,00,-86.21985,32.888552
AL,AL0056,104-008,TALLASSEE COMMUNITY PUBLIC LIBRARY,99 FREEMAN AVENUE,TALLASSEE,36078,TALLAPOOSA,3342832732,ME,CI,SO,Y,CI1,N,10/1/15,9/30/16,4805,4805,1,0,0,2,33121,32547,1684,5821,798,169,0,4,2350,23851,12911,2624,23749,9526,37,12,8438,750,05,00,00,00,-85.883518,32.535026
AL,AL0057,104-009,WETUMPKA PUBLIC LIBRARY,212 SOUTH MAIN STREET,WETUMPKA,36092,ELMORE,3345671308,ME,CI,SO,Y,CI1,N,10/1/15,9/30/16,7661,7661,1,0,0,5.5,23815,32564,1784,5821,1774,169,3,27,2854,28021,3738,22517,78261,19020,197,15,19256,3554,05,00,00,00,-86.205728,32.536194
AL,AL0059,516-001,FLORENCE - LAUDERDALE PUBLIC LIBRARY,350 NORTH WOOD AVENUE,FLORENCE,35630,LAUDERDALE,2567646564,ME,MJ,SO,Y,CO2,N,10/1/15,9/30/16,90139,90139,1,0,0,21,70085,6873,3216,2864,6160,67,3,82,2754,250952,80000,45809,250301,86083,569,29,33190,57145,05,00,00,00,-87.674756,34.803718
AL,AL0060,999-039,TUSCUMBIA - HELEN KELLER PUBLIC LIBRARY,511 NORTH MAIN STREET,TUSCUMBIA,35674,COLBERT,2563837065,NO,MJ,SO,Y,CI2,N,10/1/15,9/30/16,12831,12831,1,0,0,2.5,33247,38595,1035,57,2665,0,1,20,1924,10605,1863,9007,44734,6080,43,12,3416,0,05,00,00,00,-87.703521,34.736611
AL,AL0061,999-042,LEIGHTON PUBLIC LIBRARY,8740 MAIN STREET,LEIGHTON,35646,COLBERT,2564465380,NO,MJ,SO,Y,CI2,N,10/1/15,9/30/16,5021,5021,1,0,0,1,7117,0,18,0,628,0,1,0,823,2370,472,947,1777,253,6,5,1817,796,05,00,00,00,-87.529018,34.700781
AL,AL0062,999-050,MUSCLE SHOALS PUBLIC LIBRARY,1918 EAST AVALON AVENUE,MUSCLE SHOALS,35661,COLBERT,2563869212,NO,MJ,SO,Y,CI2,N,10/1/15,9/30/16,17917,17917,1,0,0,15,53158,149989,2637,39586,10217,13583,4,56,2193,249660,51220,20805,260978,61561,306,43,24345,47000,05,00,00,00,-87.647022,34.744439
AL,AL0063,516-004,ROGERSVILLE PUBLIC LIBRARY,74 BANK STREET,ROGERSVILLE,35652,LAUDERDALE,2562470151,ME,CI,SO,Y,CO2,N,10/1/15,9/30/16,1241,1241,1,0,0,2.5,34916,32513,1176,7111,1863,171,2,23,2080,22115,5689,5109,50445,19211,212,12,3797,3242,05,00,00,00,-87.291968,34.824767
AL,AL0064,999-066,SHEFFIELD PUBLIC LIBRARY,316 NORTH MONTGOMERY AVENUE,SHEFFIELD,35660,COLBERT,2563865633,NO,CI,SO,Y,CO2,N,10/1/15,9/30/16,13447,13447,1,0,0,4,42529,75003,1611,6535,3745,0,11,30,1700,25000,2000,8559,26993,2753,5,18,2790,2000,05,00,00,00,-87.698601,34.76108
AL,AL0065,106-000,NORTHWEST REGIONAL LIBRARY,185 ASHWOOD DRIVE,WINFIELD,35594,MARION,2054872330,HQ,MJ,SO,N,MC1,N,10/1/15,9/30/16,34731,34731,1,0,0,2,15879,28794,0,4758,0,47,0,0,1536,0,536,110,9222,273,0,0,0,-1,05,00,00,00,-87.814982,33.930851
AL,AL0066,106-001,HAMILTON - CLYDE NIX PUBLIC LIBRARY,350 BEXAR AVENUE WEST,HAMILTON,35570,MARION,2059214290,ME,CI,SO,Y,CI1,N,10/1/15,9/30/16,6790,6790,1,0,0,1.5,14761,0,505,0,254,0,0,0,1927,12328,2298,1527,13176,5064,8,6,2821,276,05,00,00,00,-87.992912,34.143417
AL,AL0067,106-002,KENNEDY PUBLIC LIBRARY,17885 HIGHWAY 96,KENNEDY,35574,LAMAR,2055963670,ME,CI,SO,Y,CI1,N,10/1/15,9/30/16,434,434,1,0,0,1,3528,0,134,0,40,0,0,0,1920,283,752,59,981,252,5,4,200,9,05,00,00,00,-87.949839,33.62142
AL,AL0068,106-003,GUIN - MCHS COMMUNITY LIBRARY,8115 U.S. HIGHWAY 43,GUIN,35563,MARION,2054682544,ME,MJ,SO,Y,CI1,N,10/1/15,9/30/16,2333,2333,1,0,0,1.5,21072,0,27,0,92,0,0,3,2200,5698,476,1824,778,175,1,10,5076,735,05,00,00,00,-87.915073,33.973692
AL,AL0069,106-004,MILLPORT PUBLIC LIBRARY,920 BLACK STREET,MILLPORT,35576,LAMAR,2056624286,ME,CI,SO,Y,CI1,N,10/1/15,9/30/16,1014,1014,1,0,0,1,7866,0,46,0,100,0,0,0,1568,4765,2256,1478,2967,1401,82,4,1511,52,05,00,00,00,-88.087372,33.561504
AL,AL0070,106-005,RUSSELLVILLE PUBLIC LIBRARY,110 EAST LAWRENCE STREET,RUSSELLVILLE,35653,FRANKLIN,2563321535,ME,CI,SO,Y,CI1,N,10/1/15,9/30/16,19141,19141,1,0,0,2.43,23986,0,560,0,1409,0,0,0,1664,10401,5015,7723,22690,4196,22,4,2943,1874,05,00,00,00,-87.730568,34.504874
AL,AL0071,106-006,SULLIGENT PUBLIC LIBRARY,514 ELM STREET,SULLIGENT,35586,LAMAR,2056988631,ME,CI,SO,Y,CI1,N,10/1/15,9/30/16,1870,1870,1,0,0,1.5,13616,0,18,0,0,0,0,0,1976,6012,1110,3153,9120,5091,24,5,1398,129,05,00,00,00,-88.134976,33.903872
AL,AL0072,106-007,VERNON - MARY WALLACE COBB MEMORIAL LIBRARY,110 FIRST AVENUE WEST,VERNON,35592,LAMAR,2056956123,ME,CI,SO,Y,CI1,N,10/1/15,9/30/16,1926,1926,1,0,0,1.5,13392,0,61,0,500,0,0,0,2108,10126,1467,6424,7395,3546,62,9,2102,117,05,00,00,00,-88.11074,33.75793
AL,AL0073,106-008,RED BAY - WEATHERFORD PUBLIC LIBRARY,307 4TH AVENUE SOUTH,RED BAY,35582,FRANKLIN,2053569255,ME,CI,SO,Y,CI1,N,10/1/15,9/30/16,3126,3126,1,0,0,0.63,13341,0,24,0,0,0,0,0,1200,5971,183,2899,4488,2160,6,7,2152,293,05,00,00,00,-88.146424,34.442276
AL,AL0074,106-009,WINFIELD PUBLIC LIBRARY,185 ASHWOOD DRIVE,WINFIELD,35594,MARION,2054872484,ME,CI,SO,Y,CI1,N,10/1/15,9/30/16,4593,4593,1,0,0,3,26482,0,404,0,3377,0,0,35,1996,19121,6901,3301,27561,8361,62,21,4806,532,05,00,00,00,-87.814982,33.930851
AL,AL0076,107-001,ATHENS - LIMESTONE PUBLIC LIBRARY,603 JEFFERSON STREET,ATHENS,35611,LIMESTONE,2562321233,NO,CO,SO,Y,CO1,N,10/1/15,9/30/16,90787,90787,1,0,0,11.5,70520,63482,1527,5863,3019,169,0,34,2314,80244,76444,13171,171144,65984,776,45,15885,8043,05,00,00,00,-86.972474,34.797124
AL,AL0077,107-002,DECATUR PUBLIC LIBRARY,504 CHERRY STREET NE,DECATUR,35601,MORGAN,2563532993,ME,CI,SO,Y,CI1,N,10/1/15,9/30/16,88573,88573,1,0,0,18.86,89887,56099,3728,7325,5988,167,6,82,3172,184022,17004,42501,197814,67954,424,30,41486,36185,05,00,00,00,-86.981368,34.605971
AL,AL0078,107-003,HARTSELLE - WILLIAM BRADFORD HUIE LIBRARY OF HARTSELLE,152 SPARKMAN STREET NW,HARTSELLE,35640,MORGAN,2567739880,ME,CI,SO,Y,CI1,N,10/1/15,9/30/16,22829,22829,1,0,0,2,27671,34414,489,6773,0,169,1,8,2080,10014,1500,11241,32177,6972,27,8,12480,950,05,00,00,00,-86.934972,34.444163
AL,AL0079,107-004,LAWRENCE COUNTY PUBLIC LIBRARY,401 COLLEGE STREET,MOULTON,35650,LAWRENCE,2569740883,ME,CO,SO,Y,CO1,N,10/1/15,9/30/16,31179,31179,1,0,0,2.87,27279,28955,1074,5863,2086,169,1,0,1920,23932,1738,11092,25595,2472,190,12,5569,5969,05,00,00,00,-87.294765,34.476036
AL,AL0080,500-000,BALDWIN COUNTY LIBRARY COOPERATIVE,22251 PALMER STREET,ROBERTSDALE,36567,BALDWIN,2519704010,HQ,CO,MO,Y,CO2,N,10/1/15,9/30/16,97739,97739,1,0,1,3.5,17794,0,904,0,1128,0,0,3,2870,29980,4938,3827,23191,7618,7,8,6936,844,05,00,00,00,-87.716873,30.550331
AL,AL0081,500-001,DAPHNE PUBLIC LIBRARY,2607 U.S. HIGHWAY 98,DAPHNE,36526,BALDWIN,2516212818,ME,CI,SO,Y,CI1,N,10/1/15,9/30/16,24395,24395,1,0,0,13.63,62646,32547,5473,5821,6690,169,1,85,2841,300271,1679,14360,349534,133390,326,24,21267,4488,05,00,00,00,-87.904874,30.617327
AL,AL0082,500-002,FAIRHOPE PUBLIC LIBRARY,501 FAIRHOPE AVENUE,FAIRHOPE,36532,BALDWIN,2519287483,ME,CI,SO,Y,CI1,N,10/1/15,9/30/16,18089,18089,1,0,0,15.01,71535,28636,4536,5863,4811,169,10,82,2704,193955,106791,15857,214030,71234,1049,64,44492,112976,05,00,00,00,-87.901025,30.523067
AL,AL0083,999-072,FOLEY PUBLIC LIBRARY,319 EAST LAUREL AVENUE,FOLEY,36535,BALDWIN,2519437665,NO,CI,SO,Y,CI1,N,10/1/15,9/30/16,16243,16243,1,0,0,11,81333,25563,6905,10266,6813,30,6,54,2912,560351,76851,25277,852219,199837,626,36,30017,14479,05,00,00,00,-87.679358,30.406408
AL,AL0084,500-004,BAY MINETTE PUBLIC LIBRARY,205 WEST SECOND STREET,BAY MINETTE,36507,BALDWIN,2515801648,ME,CI,SO,Y,CI1,N,10/1/15,9/30/16,9049,9049,1,0,0,7,52166,32547,1699,5821,1098,169,5,44,2536,75000,21840,6845,121382,14776,117,11,14589,-1,05,00,00,00,-87.776132,30.882567
AL,AL0085,500-005,LOXLEY PUBLIC LIBRARY,1001 EAST LOXLEY AVENUE,LOXLEY,36551,BALDWIN,2519645695,ME,CI,SO,Y,CI1,N,10/1/15,9/30/16,1725,1725,1,0,0,1,9407,28824,221,4862,775,22,0,0,1350,18672,5200,778,11279,3523,1,13,10000,15,05,00,00,00,-87.752894,30.619922
AL,AL0086,500-006,OSCAR JOHNSON MEMORIAL LIBRARY,21967 SIXTH STREET,SILVERHILL,36576,BALDWIN,2519455201,ME,CI,SO,N,CI1,N,10/1/15,9/30/16,754,754,1,0,0,1,9533,0,402,0,939,0,0,0,780,3000,45,175,1271,647,1,5,150,690,05,00,00,00,-87.751896,30.545199
AL,AL0087,999-071,ROBERTSDALE PUBLIC LIBRARY,18301 PENNSYLVANIA STREET,ROBERTSDALE,36567,BALDWIN,2519478960,NO,CI,SO,Y,CI1,N,10/1/15,9/30/16,5773,5773,1,0,0,3,35487,25769,3461,4696,1478,36,0,26,2624,68723,13583,5802,109484,40439,160,13,56723,287629,05,00,00,00,-87.711888,30.553667
AL,AL0088,500-008,GULF SHORES - THOMAS B. NORTON PUBLIC LIBRARY,221 WEST 19TH AVENUE,GULF SHORES,36542,BALDWIN,2519681176,ME,CI,SO,Y,CI1,N,10/1/15,9/30/16,10963,10963,1,0,0,10,44882,25712,4915,4715,4158,167,11,59,2548,172949,12720,14513,177388,27113,301,24,14055,-1,05,00,00,00,-87.690215,30.272466
AL,AL0090,501-001,ADAMSVILLE PUBLIC LIBRARY,4825 MAIN STREET,ADAMSVILLE,35005,JEFFERSON,2056743399,ME,CI,SO,Y,CI1,N,10/1/15,9/30/16,4435,4435,1,0,0,1,15083,22099,508,8419,1085,0,3,0,2340,12620,2753,2628,12824,2582,5,14,4560,-1,05,00,00,00,-86.953631,33.600449
AL,AL0091,501-002,BESSEMER PUBLIC LIBRARY,400 19TH STREET N,BESSEMER,35020,JEFFERSON,2054287882,ME,CI,SO,Y,CI1,N,10/1/15,9/30/16,26949,26949,1,0,0,11,72093,11469,1774,4694,2092,0,1,65,2860,108182,78199,18652,48346,11161,104,40,80524,24000,05,00,00,00,-86.954946,33.403346
AL,AL0092,501-003,MOUNTAIN BROOK - EMMET O`NEAL LIBRARY,50 OAK STREET,MOUNTAIN BROOK,35213,JEFFERSON,2058790459,ME,CI,SO,Y,CI1,N,10/1/15,9/30/16,20734,20734,1,0,0,31,126999,27276,8029,11860,6525,1692,12,186,3432,242905,178516,13819,346952,169710,755,72,76842,15000,05,00,00,00,-86.75615,33.501208
AL,AL0093,501-004,FAIRFIELD - WALTER J. HANNA MEMORIAL LIBRARY,4615 GARY AVENUE,FAIRFIELD,35064,JEFFERSON,2057836007,ME,CI,SO,Y,CI1,N,10/1/15,9/30/16,10988,10988,1,0,0,5,12971,22099,430,8419,0,0,3,0,2080,13402,350,3990,4048,1056,31,9,9278,-1,05,00,00,00,-86.915367,33.491112
AL,AL0094,501-005,FULTONDALE PUBLIC LIBRARY,500 BYRD LANE,FULTONDALE,35068,JEFFERSON,2058496335,ME,CI,SO,Y,CI1,N,10/1/15,9/30/16,8908,8908,1,0,0,6,22814,22099,495,8419,3090,0,3,0,2950,55000,7500,4175,34463,8739,18,16,12697,14235,05,00,00,00,-86.804106,33.606136
AL,AL0095,501-006,GARDENDALE - MARTHA MOORE PUBLIC LIBRARY,995 MT. OLIVE ROAD,GARDENDALE,35071,JEFFERSON,2056316639,ME,CI,SO,Y,CI1,N,10/1/15,9/30/16,13729,13729,1,0,0,11.9,45628,22099,2258,8419,4901,0,2,44,2684,95838,11962,10432,123674,46076,342,13,12996,29565,05,00,00,00,-86.818548,33.650464
AL,AL0096,501-007,GRAYSVILLE PUBLIC LIBRARY,315 SOUTH MAIN STREET,GRAYSVILLE,35073,JEFFERSON,2056743040,ME,CI,SO,Y,CI1,N,10/1/15,9/30/16,2114,2114,1,0,0,2,13529,22099,414,8419,388,0,3,0,2184,9755,5180,1761,14240,1671,5,6,2373,-1,05,00,00,00,-86.973359,33.626555
AL,AL0097,501-008,HOMEWOOD PUBLIC LIBRARY,1721 OXMOOR ROAD,HOMEWOOD,35209,JEFFERSON,2053326600,ME,CI,SO,Y,CI1,N,10/1/15,9/30/16,25802,25802,1,0,0,34.87,73756,30267,9003,10265,15920,0,16,234,3302,465007,186330,23181,516367,184171,989,65,58867,59516,05,00,00,00,-86.795474,33.475454
AL,AL0098,501-009,HOOVER PUBLIC LIBRARY,200 MUNICIPAL DRIVE,HOOVER,35216,JEFFERSON,2054447800,ME,CI,SO,Y,CI1,N,10/1/15,9/30/16,84353,84353,1,0,0,74.35,221496,31897,15744,9898,25512,0,10,245,3433,546063,35019,57601,1435238,585269,1207,94,87877,155090,05,00,00,00,-86.80512,33.388846
AL,AL0099,501-010,HUEYTOWN PUBLIC LIBRARY,1372 HUEYTOWN ROAD,HUEYTOWN,35023,JEFFERSON,2054911443,ME,CI,SO,Y,CI1,N,10/1/15,9/30/16,15815,15815,1,0,0,5.5,23856,22099,684,8419,1312,0,2,0,2288,36400,4043,6416,44655,11039,207,14,10823,-1,05,00,00,00,-86.996965,33.448037
AL,AL0100,501-011,IRONDALE PUBLIC LIBRARY,105 20TH STREET SOUTH,IRONDALE,35210,JEFFERSON,2059511415,ME,CI,SO,Y,CI1,N,10/1/15,9/30/16,12444,12444,1,0,0,5.9,41104,22099,2207,8419,2897,0,3,72,2392,21373,5196,4046,57504,22178,146,8,8219,14600,05,00,00,15,-86.706538,33.537768
AL,AL0101,501-012,LEEDS - JANE CULBRETH LIBRARY,8104 PARKWAY DRIVE,LEEDS,35094,JEFFERSON,2056995962,ME,CI,SO,Y,CI1,N,10/1/15,9/30/16,11939,11939,1,0,0,7.7,33387,22099,1904,8419,3526,0,1,375,2312,41059,42435,4893,55789,16012,370,10,24994,999,05,00,00,00,-86.54166,33.543487
AL,AL0102,501-013,MIDFIELD PUBLIC LIBRARY,400 BRELAND DRIVE,MIDFIELD,35228,JEFFERSON,2059231027,ME,CI,SO,Y,CI1,N,10/1/15,9/30/16,5263,5263,1,0,0,2.43,13725,22099,55,8419,1527,0,3,21,2217,38812,6605,2552,6619,2245,18,10,10462,9125,05,00,00,00,-86.916261,33.45734
AL,AL0103,501-014,PLEASANT GROVE PUBLIC LIBRARY,501 PARK ROAD,PLEASANT GROVE,35127,JEFFERSON,2057441742,ME,CI,SO,Y,CI1,N,10/1/15,9/30/16,10325,10325,1,0,0,3,19414,22099,952,8419,2471,0,2,30,2355,25193,2953,3313,31093,7731,131,13,6425,9490,05,00,00,00,-86.970719,33.490858
AL,AL0104,501-015,TARRANT PUBLIC LIBRARY,1143 FORD AVENUE,TARRANT,35217,JEFFERSON,2058410575,ME,CI,SO,Y,CI1,N,10/1/15,9/30/16,6257,6257,1,0,0,2,20363,24530,265,10130,866,0,2,45,2234,28044,1637,2009,7061,2233,53,9,7812,3100,05,00,00,00,-86.769878,33.583067
AL,AL0105,501-016,TRUSSVILLE PUBLIC LIBRARY,201 PARKWAY DRIVE,TRUSSVILLE,35173,JEFFERSON,2056552022,ME,CI,SO,Y,CI1,N,10/1/15,9/30/16,20702,20702,1,0,0,16,63311,22099,4555,8419,7612,0,4,77,2935,260332,66147,14814,263373,123108,277,36,16692,28470,05,00,00,00,-86.604718,33.62663
AL,AL0106,501-017,VESTAVIA HILLS LIBRARY IN THE FOREST,1221 MONTGOMERY HIGHWAY,VESTAVIA HILLS,35216,JEFFERSON,2059780155,ME,CI,SO,Y,CI1,N,10/1/15,9/30/16,34124,34124,1,0,0,23,71820,17994,10226,13777,10963,1719,6,115,3319,486313,176926,16089,398586,164526,634,53,35723,29327,05,00,00,00,-86.78846,33.431477
AL,AL0107,501-018,WARRIOR PUBLIC LIBRARY,101 FIRST STREET,WARRIOR,35180,JEFFERSON,2056473006,ME,CI,SO,Y,CI1,N,10/1/15,9/30/16,3190,3190,1,0,0,2,19592,22099,504,8419,916,0,1,4,2450,20997,2100,2534,25216,5471,16,7,4840,-1,05,00,00,00,-86.807083,33.813359
AL,AL0108,501-019,BIRMINGHAM PUBLIC LIBRARY,2100 PARK PLACE,BIRMINGHAM,35203,JEFFERSON,2052263610,ME,CI,MO,Y,CI1,N,10/1/15,9/30/16,212247,212247,1,18,0,294,656914,22116,30634,10129,43493,0,45,962,47060,1496318,472316,153921,860640,188943,2936,329,422760,1897792,05,00,00,00,-86.807273,33.520886
AL,AL0109,504-000,FORT PAYNE - DEKALB COUNTY PUBLIC LIBRARY,504 GRAND AVENUE NW,FORT PAYNE,35967,DEKALB,2568452671,HQ,MJ,MO,Y,CI2,N,10/1/15,9/30/16,58271,58271,1,0,1,4.3,71548,84923,2247,7609,1166,169,4,4,2606,36451,58684,19781,83255,20855,60,10,9412,-1,05,00,00,00,-85.720317,34.444933
AL,AL0110,504-001,COLLINSVILLE PUBLIC LIBRARY,151 MAIN STREET,COLLINSVILLE,35961,DEKALB,2565242323,ME,CI,SO,Y,CI1,N,10/1/15,9/30/16,1976,1976,1,0,0,2,8093,28636,77,5863,706,169,0,5,1804,8000,700,998,4166,1336,109,11,4620,4800,05,00,00,00,-85.861103,34.263986
AL,AL0111,504-002,GERALDINE PUBLIC LIBRARY,13543 ALABAMA HIGHWAY 227,GERALDINE,35974,DEKALB,2566596663,ME,CI,SO,Y,CI1,N,10/1/15,9/30/16,901,901,1,0,0,2,45527,0,1225,0,1587,0,0,0,2340,10241,2103,1803,12442,1004,33,19,4327,4327,05,00,00,00,-86.005982,34.358846
AL,AL0112,504-003,RAINSVILLE PUBLIC LIBRARY,941 EAST MAIN STREET,RAINSVILLE,35986,DEKALB,2566383311,ME,CI,SO,Y,CI1,N,10/1/15,9/30/16,5011,5011,1,0,0,4,56213,28636,2160,5863,2550,169,1,16,2537,21785,1500,14931,62318,29812,108,14,6104,175,05,00,00,00,-85.87707,34.464065
AL,AL0113,505-000,ESCAMBIA COUNTY COOPERATIVE LIBRARY SYSTEM,700 EAST CHURCH STREET,ATMORE,36502,ESCAMBIA,2513684130,HQ,CO,SO,N,CO1,N,10/1/15,9/30/16,20919,20919,1,0,0,1.5,6820,32603,18,5837,21,169,0,2,1365,0,300,558,4362,1451,3,23,14659,-1,05,00,00,00,-87.485642,31.022655
AL,AL0114,505-001,ATMORE PUBLIC,700 E. CHURCH STREET,ATMORE,36502,ESCAMBIA,2513685234,ME,CI,SO,Y,CI1,N,10/1/15,9/30/16,10006,10006,1,0,0,5.3,41448,32603,977,5837,808,169,2,35,2548,37388,13680,12079,45582,7938,179,21,12109,900,05,00,00,00,-87.485642,31.022655
AL,AL0115,505-002,BREWTON PUBLIC LIBRARY,206 WEST JACKSON STREET,BREWTON,36426,ESCAMBIA,2518674626,ME,CI,SO,Y,CI1,N,10/1/15,9/30/16,5391,5391,1,0,0,11,55668,15805,3852,156,7710,18,48,64,2432,63508,13006,18565,141843,23475,405,22,18006,586,05,00,00,00,-87.070355,31.120287
AL,AL0116,505-003,FLOMATON PUBLIC LIBRARY,436 HOUSTON STREET,FLOMATON,36441,ESCAMBIA,2512963552,ME,CI,SO,Y,CI1,N,10/1/15,9/30/16,1417,1417,1,0,0,3.2,26494,32603,1449,5837,374,169,1,32,2450,49654,93765,7447,145090,15223,30,16,33023,17564,05,00,00,00,-87.262727,31.002317
AL,AL0117,506-000,GADSDEN - ETOWAH COUNTY PUBLIC LIBRARY,254 COLLEGE STREET,GADSDEN,35901,ETOWAH,2565494699,HQ,MJ,MO,Y,CO2,N,10/1/15,9/30/16,67503,67503,1,2,0,18,97727,28636,2412,5863,5874,169,6,52,6968,93000,3585,31814,178902,50630,727,34,24220,-1,05,00,00,00,-86.009861,34.01237
AL,AL0118,999-082,ATTALLA - ETOWAH COUNTY PUBLIC LIBRARY,604 NORTH 4TH STREET,ATTALLA,35954,ETOWAH,2565389266,ME,CI,SO,Y,CI2,N,10/1/15,9/30/16,5940,5940,1,0,0,3,19676,25726,125,5834,0,169,0,0,2080,9055,1650,7256,6863,1046,16,6,4762,1000,05,00,00,00,-86.087321,34.025074
AL,AL0119,506-002,RAINBOW CITY PUBLIC LIBRARY,3702 RAINBOW DRIVE,RAINBOW CITY,35906,ETOWAH,2564428477,ME,CI,SO,Y,CI1,N,10/1/15,9/30/16,9606,9606,1,0,0,7.4,53963,29511,3308,5864,2155,169,3,62,2750,73253,7118,13161,90115,41276,160,9,8054,-1,05,00,00,00,-86.046784,33.950353
AL,AL0121,508-001,DEMOPOLIS PUBLIC LIBRARY,211 E. WASHINGTON STREET,DEMOPOLIS,36732,MARENGO,3342891595,HQ,CC,SO,Y,CI1,N,10/1/15,9/30/16,7182,7182,1,0,0,6.1,28032,1978,1553,36,2093,0,2,16,1785,89485,26407,11782,46997,19554,118,21,11917,48245,05,00,00,00,-87.835651,32.517338
AL,AL0122,508-002,MARENGO COUNTY PUBLIC LIBRARY,210 NORTH SHILOH STREET,LINDEN,36748,MARENGO,3342952246,ME,CO,SO,Y,CI1,N,10/1/15,9/30/16,2034,2034,1,0,0,2.5,8802,0,264,0,45,0,0,0,1750,15404,1386,2298,11902,2084,10,15,5518,-1,05,00,00,00,-87.796499,32.306397
AL,AL0123,509-000,MARSHALL COUNTY COOPERATIVE LIBRARY,600 COLLEGE STREET SUITE 100,ALBERTVILLE,35950,MARSHALL,2568788523,ME,CO,SO,Y,CO1,N,10/1/15,9/30/16,45944,45944,0,0,1,2,14791,0,449,0,0,0,0,0,1550,4405,22886,1116,21555,6045,0,0,0,-1,05,00,00,00,-86.199678,34.257103
AL,AL0124,509-001,ARAB PUBLIC LIBRARY,325 2ND STREET NW,ARAB,35016,MARSHALL,2565863366,ME,CI,SO,Y,CI1,N,10/1/15,9/30/16,8284,8284,1,0,0,7,50515,28369,1483,4810,1855,42,1,49,2210,25982,1023,17056,67912,9439,153,17,9468,11530,05,00,00,00,-86.496944,34.320345
AL,AL0125,509-002,BOAZ PUBLIC LIBRARY,404 THOMAS AVE.,BOAZ,35957,MARSHALL,2565938056,ME,CI,SO,Y,CI1,N,10/1/15,9/30/16,9689,9689,1,0,0,6.05,53780,28636,1287,5863,3443,169,3,83,2799,80150,18416,15418,112645,40758,127,22,15910,2046,05,00,00,00,-86.160995,34.200691
AL,AL0126,509-003,GUNTERSVILLE PUBLIC LIBRARY,1240 O`BRIG AVENUE,GUNTERSVILLE,35976,MARSHALL,2565717595,ME,CI,SO,Y,CI1,N,10/1/15,9/30/16,8358,8358,1,0,0,10,37898,5862,1468,2811,4027,67,20,79,2340,74502,47561,15804,96969,32294,677,13,13644,10475,05,00,00,00,-86.302129,34.349152
AL,AL0127,509-004,ALBERTVILLE PUBLIC LIBRARY,200 JACKSON STREET,ALBERTVILLE,35950,MARSHALL,2568918290,ME,CI,SO,Y,CI1,N,10/1/15,9/30/16,21458,21458,1,0,0,6,84642,28636,2107,5863,3098,169,2,24,2180,12480,13328,27966,62876,14447,50,9,7896,37751,05,00,00,00,-86.203009,34.264408
AL,AL0128,510-000,HARRISON REGIONAL LIBRARY SYSTEM,50 LESTER STREET,COLUMBIANA,35051,SHELBY,2056693910,HQ,CO,MO,Y,CO2,N,10/1/15,9/30/16,45304,45304,1,2,0,7,40104,29214,204,6011,154,169,11,2,1872,61,1966,1410,26098,3059,89,5,0,2316,05,00,00,00,-86.608677,33.179906
AL,AL0129,510-001,ALABASTER - ALBERT L. SCOTT LIBRARY,100 9TH STREET N.W.,ALABASTER,35007,SHELBY,2056646822,ME,CI,SO,Y,CI1,N,10/1/15,9/30/16,31545,31545,1,0,0,9.75,48692,29123,2418,6011,5376,169,11,117,3049,103726,11155,14080,164504,55114,358,8,11209,9828,05,00,00,00,-86.826696,33.244287
AL,AL0130,510-002,CALERA PUBLIC LIBRARY,9700 HIGHWAY 25,CALERA,35040,SHELBY,2056687200,ME,CI,SO,Y,CI1,N,10/1/15,9/30/16,12972,12972,1,0,0,5,41215,29214,2614,6011,3959,169,11,7,2860,53153,14426,8182,79963,29815,164,14,9175,18350,05,00,00,00,-86.768626,33.097194
AL,AL0131,510-003,COLUMBIANA PUBLIC LIBRARY,50 LESTER STREET,COLUMBIANA,35051,SHELBY,2056695812,ME,CI,SO,Y,CI1,N,10/1/15,9/30/16,4213,4213,1,0,0,4,37402,29214,2588,6011,2491,169,11,18,2600,57354,16423,5029,59740,14136,359,9,8958,3877,05,00,00,00,-86.608677,33.179906
AL,AL0132,510-004,HELENA - JANE B. HOLMES PUBLIC LIBRARY,230 TUCKER ROAD,HELENA,35080,SHELBY,2056648308,ME,CI,SO,Y,CI1,N,10/1/15,9/30/16,17883,17883,1,0,0,4,29814,29214,3463,6011,7327,169,11,36,2211,23514,15580,6992,103867,40074,183,8,8068,2355,05,00,00,00,-86.842575,33.289137
AL,AL0133,510-005,VINCENT - LALLOUISE F. MCGRAW LIBRARY,42850 HIGHWAY 25,VINCENT,35178,SHELBY,2056722749,ME,CI,SO,Y,CI1,N,10/1/15,9/30/16,2119,2119,1,0,0,1,10355,29214,273,6011,1062,169,11,0,1560,7300,150,817,20776,2298,14,10,4800,2500,05,00,00,00,-86.410898,33.386767
AL,AL0134,510-006,MONTEVALLO - PARNELL MEMORIAL LIBRARY,277 PARK DRIVE,MONTEVALLO,35115,SHELBY,2056659207,ME,CI,SO,Y,CI1,N,10/1/15,9/30/16,6601,6601,1,0,0,4,27021,29214,1006,6011,3340,169,11,7,2263,35552,5620,4825,54095,15682,272,23,7219,301,05,00,00,00,-86.858645,33.101367
AL,AL0135,510-007,PELHAM PUBLIC LIBRARY,3160 PELHAM PARKWAY,PELHAM,35124,SHELBY,2056206418,ME,CI,SO,Y,CI1,N,10/1/15,9/30/16,22699,22699,1,0,0,14.5,47357,28636,4075,5863,8743,169,5,46,2942,119873,27050,12273,337386,95742,311,28,9842,5469,05,00,00,00,-86.810801,33.287688
AL,AL0136,510-008,WILSONVILLE - VERNICE STOUDENMIRE LIBRARY,9905 NORTH MAIN STREET,WILSONVILLE,35186,SHELBY,2056696180,ME,CI,SO,Y,CI1,N,10/1/15,9/30/16,1970,1970,1,0,0,2,8534,29214,140,6011,569,169,11,5,1573,6035,34,429,21728,2568,24,6,1161,1400,05,00,00,00,-86.484016,33.23449
AL,AL0137,AL8003 - 1,NORTH SHELBY LIBRARY,5521 CAHABA VALLEY ROAD,BIRMINGHAM,35242,SHELBY,2054395555,ME,CI,MA,Y,OTH,N,10/1/15,9/30/16,49591,49591,1,1,0,14,75035,28636,4379,5863,8372,169,7,47,5078,130000,59916,20132,270788,124550,860,23,11754,10986,05,00,00,00,-86.716136,33.365376
AL,AL0140,511-001,ALICEVILLE PUBLIC LIBRARY,416 THIRD AVENUE NE,ALICEVILLE,35442,PICKENS,2053736691,ME,CI,SO,Y,CI1,N,10/1/15,9/30/16,2388,2388,1,0,0,2.02,20184,0,320,0,791,0,0,25,1679,9330,233,2480,5095,1527,43,22,3232,-1,05,00,00,00,-88.147756,33.129274
AL,AL0141,511-002,CARROLLTON PUBLIC LIBRARY,225 COMMERCE AVENUE,CARROLLTON,35447,PICKENS,2053672142,ME,CI,SO,Y,CI1,N,10/1/15,9/30/16,989,989,1,0,0,0.82,18508,0,496,0,1402,0,0,1,1338,7447,6777,4139,15119,6498,45,27,3006,2660,05,00,00,00,-88.094446,33.25807
AL,AL0142,511-003,GORDO - RUTH HOLLIMAN MEMORIAL PUBLIC LIBRARY,287 MAIN STREET SOUTH,GORDO,35466,PICKENS,2053647148,ME,CI,SO,Y,CI1,N,10/1/15,9/30/16,1689,1689,1,0,0,0.78,15340,0,84,0,941,0,0,5,1478,6667,449,3690,9639,3660,62,12,2514,2514,05,00,00,00,-87.903067,33.318578
AL,AL0143,511-004,REFORM PUBLIC LIBRARY,302 FIRST STREET SOUTH,REFORM,35481,PICKENS,2053756240,ME,CI,SO,Y,CI1,N,10/1/15,9/30/16,1638,1638,1,0,0,1,18482,0,276,0,667,0,0,0,1616,16250,1350,3603,9076,2000,28,8,8600,96,05,00,00,00,-88.014521,33.380932
AL,AL0144,512-000,ST. CLAIR COUNTY LIBRARY,139 5TH AVENUE,ASHVILLE,35953,ST. CLAIR,2055943694,HQ,CO,SO,Y,CO2,N,10/1/15,9/30/16,25409,25409,1,0,0,3,15245,19178,956,2189,1511,163,1,19,2080,10836,2916,2399,16045,1068,2,6,2869,-1,05,00,00,00,-86.254609,33.837309
AL,AL0145,512-001,ASHVILLE PUBLIC LIBRARY,196 SIXTH AVENUE,ASHVILLE,35953,ST. CLAIR,2055947954,ME,CI,SO,Y,CI1,N,10/1/15,9/30/16,2255,2255,1,0,0,0.75,15770,19178,121,2189,1083,163,1,5,1560,6355,359,3347,16058,7143,107,5,758,-1,05,00,00,00,-86.253442,33.836483
AL,AL0146,512-002,MOODY - DORIS STANLEY MEMORIAL LIBRARY,1515 BOOKMARK LANE,MOODY,35004,ST. CLAIR,2056402517,ME,CI,SO,Y,CI1,N,10/1/15,9/30/16,18810,18810,1,0,0,3,19196,28903,811,5866,1415,169,4,32,2080,17891,518,7377,25150,13978,239,11,4998,-1,05,00,00,00,-86.505859,33.590333
AL,AL0147,512-003,ODENVILLE PUBLIC LIBRARY,200 ALABAMA STREET,ODENVILLE,35120,ST. CLAIR,2056295901,ME,CI,SO,Y,CI1,N,10/1/15,9/30/16,11053,11053,1,0,0,1.74,18300,28786,171,5865,833,169,1,7,1832,22091,2128,2520,25181,6187,62,9,1746,-1,05,00,00,00,-86.39637,33.678714
AL,AL0148,999-031,PELL CITY PUBLIC LIBRARY,1000 BRUCE ETHEREDGE PKWY STE 100,PELL CITY,35128,ST. CLAIR,2058841015,ME,CI,SO,Y,CI1,N,10/1/15,9/30/16,22224,22224,1,0,0,7,35608,6950,1783,3240,1810,0,4,15,2596,57450,6825,16408,68047,19816,219,18,24535,7215,05,00,00,07,-86.276193,33.576614
AL,AL0151,513-001,YORK - HIGHTOWER MEMORIAL LIBRARY,602 2ND AVENUE,YORK,36925,SUMTER,2053922004,ME,CI,SO,Y,CI1,N,10/1/15,9/30/16,6068,6068,1,0,0,1,14000,0,100,0,156,0,0,0,1380,7391,220,1840,2123,1000,12,8,1838,0,05,00,00,00,-88.296753,32.486171
AL,AL0152,513-002,LIVINGSTON - RUBY PICKENS TARTT PUBLIC LIBRARY,206 MONROE ST.,LIVINGSTON,35470,SUMTER,2056522349,ME,CI,SO,Y,CI1,N,10/1/15,9/30/16,7098,7098,1,0,0,2,33855,1500,1274,1700,313,0,0,33,2137,15105,1212,3198,31814,11251,71,4,2550,700,05,00,00,00,-88.187587,32.583474
AL,AL0154,514-001,ANNISTON - CALHOUN COUNTY PUBLIC LIBRARY,108 EAST 10TH STREET,ANNISTON,36201,CALHOUN,2562378501,HQ,MJ,MO,Y,CO2,N,10/1/15,9/30/16,75867,75867,1,1,1,20,85896,29171,2087,5845,3696,169,2,45,4890,136357,69746,26666,154657,39225,506,50,71098,27968,05,00,00,00,-85.828191,33.657069
AL,AL0155,514-002,JACKSONVILLE PUBLIC LIBRARY,200 PELHAM ROAD SOUTH,JACKSONVILLE,36265,CALHOUN,2564356332,ME,CI,SO,Y,CO1,N,10/1/15,9/30/16,12250,12250,1,0,0,8.18,39171,32547,502,5821,2413,169,0,67,2496,44419,396,16366,73680,30353,153,39,7114,53,05,00,00,00,-85.761275,33.812804
AL,AL0156,514-003,PIEDMONT PUBLIC LIBRARY,106 NORTH MAIN STREET,PIEDMONT,36272,CALHOUN,2564473369,ME,CI,SO,Y,CI1,N,10/1/15,9/30/16,4736,4736,1,0,0,3,15734,25500,300,6500,550,50,0,17,1908,39000,25500,3881,19879,3160,82,11,4000,3000,05,00,00,00,-85.61354,33.923304
AL,AL0157,999-001,AKRON PUBLIC LIBRARY,207 FIRST AVENUE SOUTH,AKRON,35441,HALE,2053723148,NO,CI,SO,Y,CI1,N,10/1/15,9/30/16,1809,1809,1,0,0,1,2200,0,0,0,0,0,0,0,1600,330,60,85,730,350,2,8,302,0,05,00,00,00,-87.742092,32.877296
AL,AL0158,999-002,DOTHAN HOUSTON COUNTY LIBRARY SYSTEM,445 NORTH OATES STREET,DOTHAN,36303,HOUSTON,3347939767,NO,MJ,MO,Y,CO1,N,10/1/15,9/30/16,104193,104193,1,2,1,12,109925,26526,4807,4961,5710,167,11,146,8424,369640,23218,95052,285048,102875,702,95,59433,-1,05,00,00,00,-85.39408,31.228474
AL,AL0159,999-003,BLOUNTSVILLE PUBLIC LIBRARY,65 CHESTNUT STREET,BLOUNTSVILLE,35031,BLOUNT,2054293156,ME,CI,SO,Y,CI2,N,10/1/15,9/30/16,14047,14047,1,0,0,3,8472,0,126,0,147,0,0,30,2000,19500,950,8463,28118,2132,66,11,4500,700,05,00,00,00,-86.589959,34.078928
AL,AL0160,999-004,CHEROKEE PUBLIC LIBRARY,118 CHURCH STREET,CHEROKEE,35616,COLBERT,2563594384,NO,MJ,SO,Y,CI2,N,10/1/15,9/30/16,5327,5327,1,0,0,2,12865,0,72,0,415,0,72,19,1040,6438,133,2152,10725,1945,66,9,2623,875,05,00,00,00,-87.972146,34.756395
AL,AL0161,999-005,BRENT - CENTREVILLE PUBLIC LIBRARY,20 LIBRARY STREET,CENTREVILLE,35042,BIBB,2059264736,NO,MJ,SO,Y,CO1,N,10/1/15,9/30/16,18747,18747,1,0,0,1,20002,32547,507,5821,603,169,1,0,1948,24657,3765,5484,19048,5635,20,17,7556,1368,05,00,00,00,-87.150908,32.947304
AL,AL0162,999-006,CHILTON - CLANTON PUBLIC LIBRARY,100 FIRST AVENUE,CLANTON,35045,CHILTON,2057551768,NO,MJ,MO,Y,CO1,N,10/1/15,9/30/16,43931,43931,1,2,0,3,75508,0,856,0,2213,0,0,35,5424,47810,696,10104,42944,11238,77,19,11833,968,05,00,00,00,-86.624459,32.840765
AL,AL0163,999-007,CHOCTAW COUNTY PUBLIC LIBRARY,124 NORTH ACADEMY AVENUE,BUTLER,36904,CHOCTAW,2054592542,NO,MJ,MO,Y,CO1,N,10/1/15,9/30/16,13323,13323,1,1,0,2,80000,-1,4250,0,3880,0,0,25,2536,8600,445,7520,15930,5200,34,16,2650,100,05,00,00,00,-88.220104,32.090149
AL,AL0164,999-008,CITRONELLE MEMORIAL LIBRARY,7855 STATE STREET,CITRONELLE,36522,MOBILE,2518667319,NO,CI,SO,Y,CI1,N,10/1/15,9/30/16,3885,3885,1,0,0,2,16109,19552,46,0,0,0,0,24,1716,10354,1200,1488,16521,5791,86,17,3608,1350,05,00,00,00,-88.228795,31.090887
AL,AL0165,999-009,GROVE HILL PUBLIC LIBRARY,108 DUBOSE AVENUE,GROVE HILL,36451,CLARKE,2512758157,NO,CI,SO,Y,CI1,N,10/1/15,9/30/16,6283,6283,1,0,0,1,11135,30158,165,5002,342,169,0,46,2001,7022,710,4083,3202,462,15,8,3693,75,05,00,00,00,-87.775871,31.705389
AL,AL0166,999-010,HUNTSVILLE - MADISON COUNTY PUBLIC LIBRARY,915 MONROE STREET,HUNTSVILLE,35801,MADISON,2565325950,NO,MJ,MO,Y,CO1,N,10/1/15,9/30/16,350299,350299,1,11,1,110.48,386196,8681,33751,3038,76859,74,15,356,29834,1175380,467006,222677,2294069,801385,5555,372,181563,440356,05,00,00,00,-86.590298,34.72335
AL,AL0167,999-011,EUTAW - JAMES C. POOLE JR. MEMORIAL LIBRARY,420 PRAIRIE AVENUE,EUTAW,35462,GREENE,2053729026,NO,CO,SO,Y,CO1,N,10/1/15,9/30/16,8553,8553,1,0,0,2,17872,0,140,0,158,0,0,30,1819,19620,19178,2392,8276,1841,72,19,13583,420,05,00,00,00,-87.887951,32.837515
AL,AL0168,999-012,GREENVILLE - BUTLER COUNTY PUBLIC LIBRARY,309 FORT DALE STREET,GREENVILLE,36037,BUTLER,3343823216,NO,MJ,SO,Y,CO1,N,10/1/15,9/30/16,20296,20296,1,0,0,3.4,22242,24000,969,0,1784,0,6,25,2000,45000,12607,18617,15947,1274,140,10,8140,-1,05,00,00,00,-86.626554,31.83206
AL,AL0169,999-013,HALE COUNTY LIBRARY,1103 MAIN STREET,GREENSBORO,36744,HALE,3346243409,NO,MJ,SO,Y,CI1,N,10/1/15,9/30/16,6618,6618,1,0,0,1.23,14595,159,574,0,820,0,0,20,1619,10260,2506,5261,3844,1467,21,9,4651,1912,05,00,00,00,-87.592803,32.7041
AL,AL0170,999-014,CHICKASAW - INA PULLEN SMALLWOOD MEMORIAL LIBRARY,224 GRANT STREET,CHICKASAW,36611,MOBILE,2514526465,NO,CI,SO,Y,CI1,N,10/1/15,9/30/16,5981,5981,1,0,0,3,24844,0,134,6,97,0,3,68,1820,3264,982,3941,1965,358,9,5,1292,125,05,00,00,00,-88.07829,30.76502
AL,AL0171,999-015,JACKSON - WHITE SMITH MEMORIAL LIBRARY,213 COLLEGE AVENUE,JACKSON,36545,CLARKE,2512464962,NO,CI,SO,Y,CI1,N,10/1/15,9/30/16,9799,9799,1,0,0,4,21205,25776,883,4717,1478,167,410,13,2094,13835,4565,11299,13545,3051,110,23,7184,718,05,00,00,00,-87.893787,31.512345
AL,AL0172,999-016,MARION - PERRY COUNTY PUBLIC LIBRARY,202 WASHINGTON STREET,MARION,36756,PERRY,3346836411,NO,MJ,SO,Y,CO2,N,10/1/15,9/30/16,5806,5806,1,0,0,4,16669,0,163,0,579,0,0,6,1337,6943,1062,3914,2938,433,23,17,4640,2600,05,00,00,00,-87.319062,32.63427
AL,AL0173,999-017,WOODVILLE PUBLIC LIBRARY,26 VENSON STREET,WOODVILLE,35776,JACKSON,2567762796,NO,CI,SO,Y,CI1,N,10/1/15,9/30/16,739,739,1,0,0,1,24710,0,36,0,316,0,0,22,1560,3656,85,1853,14012,1569,84,7,1481,0,05,00,00,00,-86.274698,34.627129
AL,AL0174,999-018,CITY OF BAYOU LA BATRE PUBLIC LIBRARY,12747 PADGETT SWITCH ROAD,IRVINGTON,36509,MOBILE,2518244213,NO,CI,SO,Y,CI1,N,10/1/15,9/30/16,2636,2636,1,0,0,1.5,20012,0,0,0,0,0,0,0,2100,18995,1262,7639,20219,11689,11,7,11197,0,05,00,00,00,-88.240926,30.425839
AL,AL0175,999-019,SCOTTSBORO PUBLIC LIBRARY,1002 SOUTH BROAD STREET,SCOTTSBORO,35768,JACKSON,2565744335,NO,MJ,SO,Y,CI2,N,10/1/15,9/30/16,43990,43990,1,0,0,4,41674,25768,2367,27332,791,0,1,2,2496,123091,2975,13119,91994,33195,325,10,5132,200,05,00,00,00,-86.035058,34.661098
AL,AL0176,999-020,ONEONTA PUBLIC LIBRARY,221 SECOND STREET SOUTH,ONEONTA,35121,BLOUNT,2052747641,HQ,MJ,SO,Y,CO2,N,10/1/15,9/30/16,43672,43672,1,0,0,6.34,40306,6382,2202,2193,2977,33,5,37,2392,67166,9243,21111,85391,21543,399,23,10441,5127,05,00,00,00,-86.475337,33.944157
AL,AL0177,999-021,THOMASVILLE PUBLIC LIBRARY,1401 MOSLEY DRIVE,THOMASVILLE,36784,CLARKE,3346365343,NO,CI,SO,Y,CI1,N,10/1/15,9/30/16,8863,8863,1,0,0,5.15,15741,25699,441,4708,1203,167,1,37,2496,43042,15500,6786,38445,7940,1074,26,9997,20816,05,00,00,00,-87.736286,31.93051
AL,AL0178,999-022,MACON COUNTY - TUSKEGEE PUBLIC LIBRARY,302 SOUTH MAIN STREET,TUSKEGEE,36083,MACON,3347275192,NO,MJ,SO,Y,CO1,N,10/1/15,9/30/16,19425,19425,1,0,0,4,15005,0,1201,0,715,0,0,6,2280,35021,13214,7419,16719,4415,32,34,22412,985,05,00,00,00,-85.68905,32.4219
AL,AL0179,999-023,MOUNDVILLE PUBLIC LIBRARY,279 MARKET STREET,MOUNDVILLE,35474,HALE,2053712283,NO,CI,SO,Y,CI1,N,10/1/15,9/30/16,5891,5891,1,0,0,1,12004,0,0,0,748,0,0,7,2840,6946,1204,3518,12904,6077,61,11,4599,1049,05,00,00,00,-87.627578,32.997474
AL,AL0180,999-024,UNIONTOWN PUBLIC LIBRARY,108 WATER STREET,UNIONTOWN,36786,PERRY,3346286681,NO,CI,SO,Y,CI1,N,10/1/15,9/30/16,4020,4020,1,0,0,1,11351,0,141,0,156,0,0,0,2080,6021,532,8075,5373,2503,43,19,701,4021,05,00,00,00,-87.514224,32.447129
AL,AL0181,999-025,PRICHARD PUBLIC LIBRARY,300 WEST LOVEJOY LOOP,PRICHARD,36610,MOBILE,2514527847,NO,CI,MO,Y,CI1,N,10/1/15,9/30/16,22312,22312,1,1,0,6,69200,0,1176,0,1105,0,3,24,3020,36427,103503,33001,28447,8235,740,16,19722,758,05,00,00,00,-88.083996,30.731727
AL,AL0182,999-026,WASHINGTON COUNTY PUBLIC LIBRARY,14102 ST. STEPHENS AVENUE,CHATOM,36518,WASHINGTON,2518472097,NO,CO,MO,Y,CO1,N,10/1/15,9/30/16,16834,16834,1,1,1,8,42531,44945,732,19039,507,264,3,31,3420,31408,13115,8887,18326,7941,270,27,10967,5456,05,00,00,00,-88.243706,31.461165
AL,AL0184,999-030,EVERGREEN PUBLIC LIBRARY,119 CEMETERY AVENUE,EVERGREEN,36401,CONECUH,2515782670,NO,MJ,SO,Y,CO1,N,10/1/15,9/30/16,12670,12670,1,0,0,3,36868,0,1723,0,300,0,2,9,2236,16238,312,7775,36898,7853,17,21,8120,0,05,00,00,00,-86.953754,31.433997
AL,AL0186,999-032,MOBILE PUBLIC LIBRARY,701 GOVERNMENT STREET,MOBILE,36602,MOBILE,2512087073,NO,MJ,MO,Y,CO2,N,10/1/15,9/30/16,372583,372583,1,8,1,135.4,573325,8048,65905,7140,89193,0,22,906,23026,1375573,381457,194629,1659248,494965,3761,441,462213,54638,05,00,00,00,-88.050674,30.687154
AL,AL0187,999-036,MONTGOMERY CITY-COUNTY PUBLIC LIBRARY,245 HIGH STREET,MONTGOMERY,36104,MONTGOMERY,3342404300,NO,MJ,MO,Y,CO1,N,10/1/15,9/30/16,226189,226189,1,9,0,67,582062,48000,18769,36452,7890,23106,31,540,23126,566269,98128,232482,579973,192035,2388,177,266301,82025,05,00,00,00,-86.305411,32.371924
AL,AL0188,999-037,WHITE HALL PUBLIC LIBRARY,640 FREEDOM ROAD,WHITE HALL,36040,LOWNDES,3348747323,NO,CI,SO,N,CI1,N,10/1/15,9/30/16,2270,2270,1,0,0,1,12480,3,424,0,217,0,0,4,1040,184,5,778,546,67,9,4,80,0,05,00,00,00,-86.719921,32.287461
AL,AL0189,999-040,STEVENSON PUBLIC LIBRARY,102 WEST MAIN STREET,STEVENSON,35772,JACKSON,2564373008,NO,CI,SO,Y,CI1,N,10/1/15,9/30/16,2002,2002,1,0,0,1,13049,0,0,0,448,0,0,9,1236,5560,1800,4456,5802,1897,40,8,3380,200,05,00,00,00,-85.83886,34.868657
AL,AL0190,516-002,KILLEN PUBLIC LIBRARY,325 J. C. MAULDIN HIGHWAY,KILLEN,35645,LAUDERDALE,2567575471,ME,CI,SO,Y,CI1,N,10/1/15,9/30/16,988,988,1,0,0,2,26329,23,549,0,574,0,0,0,2320,26588,7325,4463,23849,6161,59,19,5414,1967,05,00,00,00,-87.540936,34.859277
AL,AL0191,516-003,LEXINGTON - BURCHELL CAMPBELL MEMORIAL LIBRARY,11075 HIGHWAY 101,LEXINGTON,35648,LAUDERDALE,2562295579,ME,CI,SO,Y,CI2,N,10/1/15,9/30/16,728,728,1,0,0,1,15828,0,219,0,565,0,0,0,1196,20097,6324,2665,5327,1651,4,11,1834,5000,05,00,00,00,-87.371225,34.967751
AL,AL0192,999-043,AUTAUGA - PRATTVILLE PUBLIC LIBRARY,254 DOSTER STREET,PRATTVILLE,36067,AUTAUGA,3343653396,NO,MJ,MO,Y,CO1,N,10/1/15,9/30/16,55395,55395,1,3,0,11.5,77159,25580,2148,4779,2726,167,1,83,4992,197356,44360,21343,170556,55696,387,32,68540,13527,05,00,00,00,-86.468909,32.456939
AL,AL0193,999-044,FAYETTE COUNTY MEMORIAL LIBRARY,326 TEMPLE AVENUE NORTH,FAYETTE,35555,FAYETTE,2059326625,NO,CO,SO,Y,CO1,N,10/1/15,9/30/16,16874,16874,1,0,0,4,23630,28636,399,5863,1581,169,0,27,2331,22000,4169,3801,30789,7859,44,12,4042,-1,05,00,00,00,-87.83076,33.687497
AL,AL0194,999-045,PHENIX CITY - RUSSELL COUNTY PUBLIC LIBRARY,1501 17TH AVENUE,PHENIX CITY,36867,RUSSELL,3342971139,NO,MJ,SO,Y,CO1,N,10/1/15,9/30/16,59608,59608,1,0,0,8.5,42802,32547,702,5821,3221,169,3,36,2656,119263,16048,45659,108328,42763,588,33,40079,4721,05,00,00,00,-85.016091,32.47518
AL,AL0195,999-046,SELMA - DALLAS COUNTY PUBLIC LIBRARY,1103 SELMA AVENUE,SELMA,36703,DALLAS,3348741725,NO,MJ,SO,Y,CI1,N,10/1/15,9/30/16,41711,41711,1,0,0,20,77063,32547,1031,5821,1506,169,1,32,2591,143640,42962,34476,56270,17881,285,40,49472,-1,05,00,00,00,-87.02047,32.409023
AL,AL0196,999-047,TUSCALOOSA PUBLIC LIBRARY,1801 JACK WARNER PARKWAY,TUSCALOOSA,35401,TUSCALOOSA,2053455820,NO,MJ,MO,Y,CO1,N,10/1/15,9/30/16,202212,202212,1,2,2,50.5,167993,14493,13871,3078,26952,367,10,392,6620,364323,73323,51649,751036,294205,771,250,238764,1241000,05,00,00,00,-87.562483,33.216205
AL,AL0197,999-048,WILCOX COUNTY LIBRARY,100 BROAD STREET,CAMDEN,36726,WILCOX,3346824655,NO,CO,MO,Y,CO1,N,10/1/15,9/30/16,11098,11098,1,2,0,3.5,42940,70,798,0,645,0,6,39,3540,7369,4211,9056,17129,6869,105,26,5901,467,05,00,00,00,-87.289824,31.991875
AL,AL0198,999-049,MONROE COUNTY PUBLIC LIBRARY,121 PINEVILLE ROAD,MONROEVILLE,36460,MONROE,2517433818,NO,CO,SO,Y,CO1,N,10/1/15,9/30/16,21947,21947,1,0,0,3,27795,0,1500,0,700,0,0,0,2040,57180,7605,21580,72025,22310,156,10,33879,12,05,00,00,00,-87.323596,31.528055
AL,AL0199,999-051,CULLMAN COUNTY PUBLIC LIBRARY,200 CLARK STREET NE,CULLMAN,35055,CULLMAN,2567341068,HQ,MJ,MO,Y,CO1,N,10/1/15,9/30/16,81289,81289,1,4,2,12.54,68667,32547,3384,6700,9943,167,3,72,8593,101778,4105,34219,172049,41913,883,40,17935,-1,05,00,00,00,-86.841189,34.17969
AL,AL0200,999-052,VALLEY - H. GRADY BRADSHAW / CHAMBERS COUNTY LIBRARY,3419 20TH AVENUE,VALLEY,36854,CHAMBERS,3347682161,NO,CO,MO,Y,CO1,N,10/1/15,9/30/16,34076,34076,1,1,0,12.55,107280,3500,1579,2000,6561,0,5,20,3472,193971,33228,27269,89180,36431,341,20,22701,-1,05,00,00,00,-85.177732,32.838772
AL,AL0203,999-081,HOKES BLUFF PUBLIC LIBRARY,3310 ALFORDS BEND ROAD,HOKES BLUFF,35903,ETOWAH,2564929846,ME,CI,SO,Y,CI1,N,10/1/15,9/30/16,4325,4325,1,0,0,1,13986,28636,326,5863,0,169,3,0,2414,11520,1400,5852,7815,705,13,9,3763,0,05,00,06,00,-85.866086,33.991942
AL,AL0204,512-004,RAGLAND PUBLIC LIBRARY,26 PROVIDENCE ROAD,RAGLAND,35131,ST. CLAIR,2054722007,ME,CI,SO,Y,CI1,N,10/1/15,9/30/16,1677,1677,1,0,0,0.65,16360,19178,185,2189,1531,163,1,4,1352,5820,2410,1675,18242,5134,24,8,4240,-1,05,00,00,00,-86.144511,33.74387
AL,AL0206,999-063,HAYNEVILLE - LOWNDES COUNTY PUBLIC LIBRARY,215 B TUSKEENA STREET,HAYNEVILLE,36040,LOWNDES,3345482686,NO,MJ,SO,Y,CO2,N,10/1/15,9/30/16,5604,5604,1,0,0,1,21700,0,0,0,0,0,0,8,1456,5875,4308,1944,7092,2328,4,18,5010,-1,05,00,00,00,-86.585241,32.183869
AL,AL0208,504-004,IDER PUBLIC LIBRARY,11309 ALABAMA HIGHWAY 75 UNIT 1,IDER,35981,DEKALB,2566572170,ME,CI,SO,Y,CI1,N,10/1/15,9/30/16,716,716,1,0,0,0.9,7789,28636,65,5863,481,169,4,8,1212,5999,1034,1771,6390,1091,5,10,1750,498,05,00,00,00,-85.672885,34.690897
AL,AL0209,517-002,EUFAULA CARNEGIE LIBRARY,217 NORTH EUFAULA AVENUE,EUFAULA,36027,BARBOUR,3346872336,ME,CI,MO,Y,CO2,N,10/1/15,9/30/16,15060,15060,1,0,0,7.5,31669,32547,1013,5821,2391,169,0,64,2683,48413,5405,9091,37502,7858,87,10,8223,1445,05,00,00,00,-85.145606,31.894026
AL,AL0210,509-005,GRANT PUBLIC LIBRARY,5379 MAIN STREET,GRANT,35747,MARSHALL,2567285128,ME,CI,SO,Y,CI1,N,10/1/15,9/30/16,903,903,1,0,0,2,19824,0,156,0,465,0,0,5,1664,7800,750,2612,5987,2111,34,4,1080,0,05,00,00,00,-86.252872,34.526414
AL,AL0211,999-076,DALEVILLE PUBLIC LIBRARY,308 DONNELL BOULEVARD,DALEVILLE,36322,DALE,3345039119,ME,CI,SO,Y,CI1,N,10/1/15,9/30/16,7742,7742,1,0,0,2.38,21037,0,1232,0,2449,0,1,56,2020,26805,4687,3225,10412,4121,117,51,7330,-1,05,00,00,00,-85.707057,31.314859
AL,AL0216,107-005,COURTLAND PUBLIC LIBRARY,215 COLLEGE STREET,COURTLAND,35618,LAWRENCE,2566379988,ME,CI,SO,Y,CO2,N,10/1/15,9/30/16,1222,1222,1,0,0,1,16288,0,146,0,847,0,0,5,816,6721,1567,1725,5589,1074,9,6,2396,589,05,00,00,00,-87.310429,34.665965
AL,AL0217,107-006,EVA PUBLIC LIBRARY,4549 HIGHWAY 55 EAST,EVA,35621,MORGAN,2567968638,ME,CI,SO,Y,CI1,N,10/1/15,9/30/16,953,953,1,0,0,1,14753,35673,182,0,886,0,0,20,1040,4557,973,2304,7584,2387,52,6,332,3023,05,00,00,00,-86.757649,34.331808
AL,AL0218,504-005,CROSSVILLE PUBLIC LIBRARY,8075 AL HWY 227,CROSSVILLE,35962,DEKALB,2565282628,ME,CI,SO,Y,CI1,N,10/1/15,9/30/16,1846,1846,1,0,0,1.25,9690,28636,325,5863,170,169,0,4,2104,7904,2036,1902,6675,1288,19,9,1776,51,05,00,00,00,-85.991877,34.287038
AL,AL0219,999-083,WALNUT GROVE - WESTSIDE PUBLIC LIBRARY,5151 WALNUT GROVE ROAD,WALNUT GROVE,35990,ETOWAH,2055896699,ME,MJ,SO,Y,CI2,N,10/1/15,9/30/16,689,689,1,0,0,1,10220,0,124,0,89,0,0,5,1300,2136,400,1140,565,71,3,4,1152,0,05,00,00,00,-86.30757,34.054032
AL,AL0222,500-009,ORANGE BEACH PUBLIC LIBRARY,26267 CANAL ROAD,ORANGE BEACH,36561,BALDWIN,2519812923,ME,CI,SO,Y,CI1,N,10/1/15,9/30/16,5788,5788,1,0,0,7,38998,28689,3925,5863,3139,169,2,13,2595,67213,36938,8336,100687,20779,235,16,10309,13242,05,00,00,00,-87.576941,30.292128
AL,AL0223,999-073,SATSUMA PUBLIC LIBRARY,5466 OLD HIGHWAY 43,SATSUMA,36572,MOBILE,2516790700,NO,CI,SO,Y,CI1,N,10/1/15,9/30/16,6167,6167,1,0,0,3,16351,287,68,0,118,0,0,5,2105,18992,10003,6999,6166,1622,530,15,3375,2760,05,00,00,00,-88.058291,30.848299
AL,AL0225,107-007,FALKVILLE PUBLIC LIBRARY,7 NORTH 1ST AVENUE,FALKVILLE,35622,MORGAN,2567845822,ME,CI,SO,Y,CI1,N,10/1/15,9/30/16,1711,1711,1,0,0,1,14495,27270,230,0,930,0,0,2,1872,6247,8994,711,6376,1135,5,13,2704,1100,05,00,00,00,-86.907477,34.368605
AL,AL0226,512-007,SPRINGVILLE PUBLIC LIBRARY,6315 U.S. HIGHWAY 11,SPRINGVILLE,35146,ST. CLAIR,2054672339,ME,CI,SO,Y,CI1,N,10/1/15,9/30/16,4194,4194,1,0,0,3,17224,18587,1441,3175,1835,120,0,11,2028,13828,1224,5500,26663,9370,222,5,3643,7286,05,00,00,07,-86.473094,33.77421
AL,AL0227,999-074,BRIDGEPORT - LENA CAGLE PUBLIC LIBRARY,401 ALABAMA AVENUE,BRIDGEPORT,35740,JACKSON,2564952259,NO,CI,SO,Y,CI1,N,10/1/15,9/30/16,2372,2372,1,0,0,0.7,5590,0,0,0,433,0,0,12,1400,12582,2865,390,10239,1362,6,14,10518,0,05,00,00,00,-85.717736,34.947238
AL,AL0229,999-080,WEST BLOCTON PUBLIC LIBRARY,62 WALTER OWENS DRIVE,WEST BLOCTON,35184,BIBB,2059383570,ME,CI,SO,Y,CI1,N,10/1/15,9/30/16,1259,1259,1,0,0,1,10845,0,187,0,738,0,0,2,1347,2072,1091,2072,839,304,35,6,798,847,05,00,00,00,-87.111548,33.11836
AL,AL0231,100-009,CARBON HILL CITY LIBRARY,215 NW 2ND STREET,CARBON HILL,35549,WALKER,2059244254,ME,CI,SO,Y,CI1,N,10/1/15,9/30/16,1980,1980,1,0,0,0.4,9266,32547,76,5821,1,169,0,22,832,2655,3110,710,2463,158,15,4,1128,963,05,00,00,00,-87.5289,33.88968
AL,AL0238,OHATCHEE,OHATCHEE PUBLIC LIBRARY,7803 ALABAMA HIGHWAY 77,OHATCHEE,36271,CALHOUN,2568924203,NO,CI,SO,Y,CI1,N,10/1/15,9/30/16,1144,1144,1,0,0,1.05,8520,0,828,0,0,0,0,11,1508,3497,104,1432,6972,2785,10,4,927,196,05,00,00,00,-86.038188,33.780065
AL,AL0239,SOMERVILLE,SOMERVILLE PUBLIC LIBRARY,192 BROAD STREET,SOMERVILLE,35670,MORGAN,2567789779,NO,CI,SO,Y,CI1,N,10/1/15,9/30/16,1159,1159,1,0,0,0.9,14762,0,150,0,970,0,0,0,1750,6827,425,2500,5840,2584,62,10,2064,225,05,00,00,00,-86.798892,34.473429
AL,AL0240,AL8013,CHELSEA PUBLIC LIBRARY,41 WELDON DRIVE,CHELSEA,35043,SHELBY,2056189735,ME,CO,SO,Y,CO1,N,10/1/15,9/30/16,11758,11758,1,0,0,2.73,28348,29902,4009,6293,2400,169,13,15,2444,27183,6675,3367,82217,35793,143,5,2144,23450,05,00,00,00,-86.631759,33.340248
AL,AL0241,AL8014,DUTTON PUBLIC LIBRARY,23 MAIN STREET,DUTTON,35744,JACKSON,2562284090,ME,CI,SO,Y,CI1,N,10/1/15,9/30/16,3562,3562,1,0,0,1,4178,0,0,0,0,0,0,0,1248,1919,488,1919,716,303,38,8,325,45,05,00,00,00,-85.916723,34.610205
AL,AL0242,AL8015,FORT DEPOSIT PUBLIC LIBRARY,11 MILNER STREET,FORT DEPOSIT,36032,LOWNDES,3344044400,ME,CI,SO,Y,CI1,N,10/1/15,9/30/16,2706,2706,1,0,0,1,630,0,0,0,20,0,0,0,1040,1110,182,1322,2126,757,5,14,490,100,05,00,00,00,-86.57911,31.987217
AL,AL0243,AL8016,SUMMERDALE - MARJORIE YOUNCE SNOOK PUBLIC LIBRARY,202 WEST BROADWAY STREET,SUMMERDALE,36580,BALDWIN,2519892011,ME,CI,SO,Y,CI1,N,10/1/15,9/30/16,1005,1005,1,0,0,2.5,18940,28636,1100,5863,1002,169,1,48,2439,17559,1050,1440,19717,5970,154,20,9850,1000,05,00,00,00,-87.701512,30.487229
AL,AL0244,501-020,CLAY PUBLIC LIBRARY,7257 OLD SPRINGVILLE ROAD,PINSON,35126,JEFFERSON,2056803812,ME,CI,SO,Y,CI1,N,10/1/15,9/30/16,9700,9700,1,0,0,2.5,6686,22099,466,8419,1583,0,3,0,2472,15574,3115,1279,25514,12830,112,5,2002,4380,05,00,00,00,-86.576972,33.715779
AL,AL0245,104-010,ECLECTIC PUBLIC LIBRARY,50 MAIN STREET,ECLECTIC,36024,ELMORE,3346394727,ME,CI,SO,Y,CI1,N,10/1/15,9/30/16,1015,1015,1,0,0,0.4,11065,0,339,0,770,0,0,6,800,5920,130,1631,3497,1155,75,5,1455,-1,05,00,00,00,-86.03464,32.635971
AL,AL0246,514-005,HOBSON CITY PUBLIC LIBRARY,610 MARTIN LUTHER KING DRIVE,HOBSON CITY,36201,CALHOUN,2568317069,HQ,CI,SO,Y,CI1,N,10/1/15,9/30/16,764,764,1,0,0,1,10940,0,13,0,300,0,0,5,1008,4000,30,435,6252,2065,95,13,3500,1000,05,00,00,00,-85.843395,33.620441
AL,AL0247,999-084,MUNFORD PUBLIC LIBRARY,82 RAILROAD STREET,MUNFORD,36268,TALLADEGA,2563583600,NO,CI,SO,Y,CI1,N,10/1/15,9/30/16,1262,1262,1,0,0,2.3,10234,0,53,0,234,0,0,1,2000,8237,1000,8237,4564,1890,223,9,1813,551,05,00,00,00,-85.95425,33.530838
AL,AL0248,506-003,SOUTHSIDE PUBLIC LIBRARY,2138 HIGHWAY 77,SOUTHSIDE,35907,ETOWAH,2564426217,NO,CI,SO,Y,CI1,N,10/1/15,9/30/16,8552,8552,1,0,0,0.15,12965,32513,191,5822,864,169,4,0,1916,5184,148,1804,8626,5652,41,3,405,220,05,00,00,00,-86.022373,33.922252
AL,AL0249,512-008,STEELE PUBLIC LIBRARY,78 HILLVIEW STREET,STEELE,35987,ST. CLAIR,2565380811,ME,CI,SO,Y,CI1,N,10/1/15,9/30/16,1075,1075,1,0,0,0.75,7130,19178,12,2189,1523,163,1,13,1560,2669,355,553,11617,2163,3,5,808,-1,05,00,00,00,-86.199029,33.944185
AL,AL0250,501-021,PINSON PUBLIC LIBRARY,4410 MAIN STREET,PINSON,35126,JEFFERSON,2056809298,ME,CI,SO,Y,CI1,N,10/1/15,9/30/16,7143,7143,1,0,0,3.8,12004,22099,256,12692,2893,1223,3,53,2628,41659,8621,3233,75059,30781,190,6,14541,34578,05,00,00,00,-86.681401,33.691507
AL,AL0251,AL8008-001,GLENCOE PUBLIC LIBRARY,101 WEST MAIN STREET,GLENCOE,35905,ETOWAH,2564594285,ME,CI,SO,Y,CI1,N,10/1/15,9/30/16,5174,5174,1,0,0,0.6,8186,32547,5,5821,345,169,0,1,1190,1715,95,1568,1806,518,18,4,342,40,05,00,00,00,-85.923209,33.943038
AL,AL0252,AL8009-001,MAGNOLIA SPRINGS PUBLIC LIBRARY,12440 MAGNOLIA AVENUE STE 600,MAGNOLIA SPRINGS,36555,BALDWIN,2519652305,ME,CI,SO,Y,CI1,N,10/1/15,9/30/16,782,782,1,0,0,1,4483,28636,143,5863,488,169,0,0,988,6800,812,621,6356,2040,124,3,675,2660,05,00,00,00,-87.770474,30.405959
AL,AL0253,AL0079-003,TOWN CREEK PUBLIC LIBRARY,15971 MAIN STREET,TOWN CREEK,35672,LAWRENCE,2566852973,NO,CI,SO,Y,CI1,N,10/1/15,9/30/16,1076,1076,1,0,0,1,9327,0,65,0,846,0,0,0,1265,11259,276,1731,8406,1634,5,14,1567,0,05,00,00,00,-87.405987,34.682031
AL,AL0254,501-000,JEFFERSON COUNTY LIBRARY COOPERATIVE,2100 PARK PLACE,BIRMINGHAM,35203,JEFFERSON,2052263615,HQ,CO,SO,N,MA2,N,10/1/15,9/30/16,113632,113632,1,0,0,7.43,0,22099,0,8419,0,0,3,0,2250,2275,4920,0,21412,0,0,0,0,-1,05,00,00,00,-86.807273,33.520886
AL,AL0255,508-000,MARENGO LIBRARY SYSTEM,211 EAST WASHINGTON STREET,DEMOPOLIS,36732,MARENGO,3342891595,HQ,CO,SO,Y,CO1,N,10/1/15,9/30/16,10894,10894,0,0,1,2,0,0,0,0,0,0,0,0,216,457,205,395,5428,1213,0,0,0,0,05,00,00,00,-87.835651,32.517338
AL,AL0256,511-000,PICKENS COUNTY COOPERATIVE LIBRARY,155 REFORM STREET,CARROLLTON,35447,PICKENS,2053678407,HQ,CO,SO,Y,CO1,N,10/1/15,9/30/16,13661,13661,1,0,0,0.75,784,0,14,0,3,0,0,2,1500,391,48,8,146,33,147,2,40,-1,05,00,00,00,-88.094452,33.26792
AL,AL0257,504-006,R.L. HADDEN MEMORIAL LIBRARY,17163 ALABAMA 75,HENAGAR,35978,DEKALB,2566571380,ME,CI,SO,Y,CI1,N,10/1/15,9/30/16,2344,2344,1,0,0,1,4966,32547,0,5821,199,169,0,0,2089,3011,360,1091,5747,131,6,4,1260,-1,05,00,00,00,-85.744552,34.631874
AL,AL8004,AL8004,MT. VERNON PUBLIC LIBRARY,19180 SHEPARD LAKE ROAD EAST,MT. VERNON,36560,MOBILE,2518299497,NO,CI,SO,Y,CI1,N,10/1/15,9/30/16,1559,1559,1,0,0,1,4420,0,0,0,0,0,0,0,1568,3920,3740,3309,1504,255,32,13,2753,425,05,00,00,00,-87.99174,31.091735
AL,AL8007,107-008,LINDA DURAN PUBLIC LIBRARY,1612 S. BETHEL RD,PRICEVILLE,35603,MORGAN,2565840230,ME,CI,SO,Y,CI1,N,10/1/15,9/30/16,4382,4382,1,0,0,2,12361,0,335,0,4500,0,0,0,2692,5484,104,5484,10618,2233,6,6,570,-1,05,00,00,00,-86.894958,34.521669
AL,AL8008,999-055,SARDIS CITY PUBLIC LIBRARY,1310 CHURCH STREET,SARDIS CITY,35956,ETOWAH,2565935634,NO,CI,SO,Y,CI1,N,10/1/15,9/30/16,1742,1742,1,0,0,2,18691,29377,385,4640,3256,169,0,1,1355,6997,683,3061,16257,2718,16,13,1336,-1,05,00,00,00,-86.122726,34.174536
AL,AL8009,AL8009,WOODSTOCK COMMUNITY LIBRARY,18441 EASTERN VALLEY ROAD,WOODSTOCK,35188,BIBB,2059380008,ME,CI,SO,Y,CI1,N,10/1/15,9/30/16,2500,2500,1,0,0,1,12102,0,382,0,965,0,0,0,1628,8980,2143,2623,12604,3883,149,7,4326,416,05,00,00,00,-87.153776,33.205021
AL,AL8010,999-085,NEWBERN PUBLIC LIBRARY,7840 ALABAMA HIGHWAY 61,NEWBERN,36765,HALE,3346244880,NO,CI,SO,Y,CI1,N,10/1/15,9/30/16,866,866,1,0,0,1,4890,0,80,0,40,0,0,0,1100,200,0,255,600,400,12,4,200,200,05,00,00,00,-87.533075,32.597985
AL,AL8011,999-086,SPANISH FORT PUBLIC LIBRARY,7361 SPANISH FORT BLVD,SPANISH FORT,36527,BALDWIN,2514106504,ME,CI,SO,Y,CI1,N,10/1/15,9/30/16,7806,7806,1,0,0,2,12947,0,208,0,370,0,0,40,2496,37502,3331,1206,33198,17587,139,8,2788,2096,05,02,00,00,-87.895507,30.670649
AR,AR0001,AROO1-009,CENTRAL ARKANSAS LIBRARY SYSTEM,100 ROCK STREET,LITTLE ROCK,72201,PULASKI,5019183000,NO,MJ,MO,Y,OTH,N,1/1/16,12/31/16,311250,281452,1,13,0,253,878185,39163,28955,13305,100589,0,56,694,38938,2068854,836556,201216,2694347,823944,9148,360,275279,0,05,00,00,00,-92.266769,34.747516
AR,AR0002,AR002,WASHINGTON COUNTY LIBRARY SYSTEM,1080 WEST CLYDESDALE DRIVE,FAYETTEVILLE,72701,WASHINGTON,4794426253,NO,CO,MA,Y,MC2,N,1/1/16,12/31/16,159726,144434,0,9,0,23.5,292851,54664,20375,12878,69618,596,11,307,17893,798320,57657,82828,978080,370794,1400,196,94644,67635,05,00,00,00,-94.175534,36.034184
AR,AR0003,AR003-013,MARION COUNTY LIBRARY,308 OLD MAIN,YELLVILLE,72687,MARION,8704496015,HQ,CO,SO,Y,CO1,N,1/1/16,12/31/16,16224,14671,1,0,0,4,25930,75701,919,40777,2358,1206,0,38,2496,27576,4420,7466,60846,11338,132,8,1954,773,05,00,00,00,-92.69091,36.246789
AR,AR0004,AR0004-023,SOUTHWEST ARKANSAS REGIONAL LIBRARY,121 WEST MAIN,PRESCOTT,71857,NEVADA,8708875846,NO,MJ,MA,Y,MC1,N,1/1/16,12/31/16,108769,98356,0,5,0,4,66119,0,1015,0,2223,0,1,28,4933,14183,1178,1843,18573,4915,74,41,6450,450,05,00,00,00,-93.38119,33.802651
AR,AR0005,AR005-009,MID ARKANSAS REGIONAL LIBRARY SYSTEM,202 EAST THIRD STREET,MALVERN,72104,HOT SPRING,5013325441,NO,MJ,MO,Y,MC1,N,1/1/16,12/31/16,66431,60071,1,4,1,11,154014,2367,4738,3600,7661,0,2,91,8258,88372,14021,40964,124027,22769,361,58,25116,28855,05,00,00,00,-92.811827,34.363955
AR,AR0006,AR006-004,GARLAND COUNTY LIBRARY,1427 MALVERN AVENUE,HOT SPRINGS,71901,GARLAND,5016234161,NO,CO,SO,Y,CI1,N,1/1/16,12/31/16,88068,79637,1,0,0,46,128560,9371,14114,2351,18350,30102,12,195,3472,410806,12016,48163,585084,309921,1217,37,53139,36420,05,00,00,00,-93.039265,34.497314
AR,AR0007,AR0007-016,WHITE RIVER REGIONAL LIBRARY,"503 WEST MAIN STREET, SUITE 3",MOUNTAIN VIEW,72560,STONE,8702694682,NO,MJ,MO,Y,MC1,Y,1/1/16,12/31/16,111788,101086,0,15,0,28.6,139346,723,4436,0,5718,0,1,154,22906,155828,0,48824,190957,38230,499,74,33959,10163,05,00,00,00,-92.123042,35.867586
AR,AR0008,AR021-002,PINE BLUFF JEFFERSON COUNTY LIBRARY SYSTEM,200 E. 8TH AVENUE,PINE BLUFF,71601,JEFFERSON,8705344802,NO,CC,MO,Y,CO1,N,1/1/16,12/31/16,77435,70022,1,4,0,17,171407,1932,4354,682,9096,0,14,169,14030,83515,25570,26399,280857,57739,321,54,32567,0,05,00,00,00,-92.001881,34.221623
AR,AR0009,AR009-002,CROWLEY RIDGE REGIONAL LIBRARY,315 WEST OAK AVENUE,JONESBORO,72401,CRAIGHEAD,8709355133,NO,MJ,MO,Y,MC1,N,1/1/16,12/31/16,107762,97445,1,7,0,44,206994,11544,10367,3539,26225,0,16,237,13393,632643,22206,58635,613692,173422,2810,109,78056,0,05,00,00,00,-90.707472,35.833823
AR,AR0010,AR010-002,COLUMBIA COUNTY LIBRARY,2057 NORTH JACKSON,MAGNOLIA,71753,COLUMBIA,8702341991,NO,CO,MO,Y,CO1,N,1/1/16,12/31/16,25603,23152,1,1,0,6,60757,1262,2148,202,7811,0,4,58,3942,35845,383,16004,52644,24724,60,29,9536,0,05,00,00,00,-93.235134,33.285709
AR,AR0011,AR011-003,FORT SMITH PUBLIC LIBRARY,3201 ROGERS AVENUE,FORT SMITH,72903,SEBASTIAN,4797830229,NO,CI,MO,N,CI1,N,1/1/16,12/31/16,80268,72583,1,3,0,35,281734,15146,8538,4311,11087,223,16,490,11804,359947,237617,94517,570281,182801,620,86,76960,95033,05,00,00,00,-94.396899,35.373756
AR,AR0012,AR012-004,ARKANSAS RIVER VALLEY REGIONAL LIBRARY,501 NORTH FRONT STREET,DARDANELLE,72834,YELL,4792294418,NO,MJ,MO,Y,MC1,N,1/1/16,12/31/16,84177,76118,1,6,0,23,129904,21323,3663,6002,9213,263,9,2558,16746,212996,20669,59362,281179,90244,1727,100,40592,87513,05,00,00,00,-93.155147,35.223994
AR,AR0013,AR0056,NORTHEAST ARKANSAS REGIONAL LIBRARY,120 NORTH 12TH STREET,PARAGOULD,72450,GREENE,8702368711,NO,MJ,MO,Y,MC1,N,1/1/16,12/31/16,73135,66133,1,4,0,22,201687,10092,7636,7553,10436,0,3,181,12324,173953,19949,34405,226377,55652,251,44,40255,6367,05,00,00,00,-90.500635,36.05651
AR,AR0014,AR0014-016,SOUTHEAST ARKANSAS REGIONAL LIBRARY,114 W JEFFERSON,MONTICELLO,71655,DREW,8703678584,NO,MJ,MA,Y,MC1,N,1/1/16,12/31/16,75273,68067,1,11,0,14,103349,50833,1409,0,4559,0,0,101,18512,227792,81687,24763,132181,28544,933,98,53151,0,05,00,00,00,-91.790271,33.636838
AR,AR0015,AR015-003,PHILLIPS LEE MONROE REGIONAL LIBRARY SYSTEM,702 PORTER ST,HELENA,72342,PHILLIPS,8703387732,NO,MJ,MO,Y,MC1,N,1/1/16,12/31/16,49279,44561,1,5,0,8,39011,0,1262,0,420,0,0,6,8726,24900,4846,8971,73168,13476,74,15,14536,0,05,00,00,00,-90.591377,34.528163
AR,AR0016,AR016,WILLIAM F. LAMAN PUBLIC LIBRARY,2801 ORANGE STREET,NORTH LITTLE ROCK,72114,PULASKI,5017581720,NO,CI,MA,Y,MA1,N,1/1/16,12/31/16,60433,54647,1,1,0,28,159369,8476,9167,2937,5380,0,8,239,5668,361458,330479,16715,248783,71036,6511,80,56179,252400,05,00,00,00,-92.26949,34.779775
AR,AR0017,AR017-002,FAULKNER-VAN BUREN REGIONAL LIBRARY SYSTEM,1900 TYLER STREET,CONWAY,72032,FAULKNER,5013277482,NO,MJ,MO,Y,MC1,N,1/1/16,12/31/16,102206,92421,1,7,0,29,208613,7032,10114,1928,20381,48,4,392,17310,391614,10486,52091,409111,133731,2459,66,55504,0,05,00,00,00,-92.450181,35.102848
AR,AR0019,AR019-007,WHITE COUNTY REGIONAL LIBRARY SYSTEM,113 EAST PLEASURE AVENUE,SEARCY,72143,WHITE,5012792870,NO,CO,MA,Y,CO1,N,1/1/16,12/31/16,77076,69697,1,8,0,18,119155,4794,5344,6679,17852,0,8,232,15404,294982,34555,38566,580010,181570,1094,41,37136,14181,05,00,00,00,-91.736249,35.247674
AR,AR0020,AR020-002,BARTON LIBRARY,200 EAST 5TH STREET,EL DORADO,71730,UNION,8708635447,NO,CO,MO,Y,CO1,N,1/1/16,12/31/16,45629,41261,1,5,0,8,61878,0,2464,0,2872,0,2,84,7549,54994,2155,7130,45382,9824,117,39,23741,0,05,00,00,00,-92.662141,33.221987
AR,AR0021,AR008-002,POPE COUNTY LIBRARY SYSTEM,116 EAST 3RD STREET,RUSSELLVILLE,72801,POPE,4799684368,NO,CO,MO,Y,CO1,N,1/1/16,12/31/16,54469,49254,1,3,1,28,117737,13377,2791,811,7023,2,4,265,6656,151718,20167,32790,323210,70087,1061,48,18737,47069,05,00,00,00,-93.132742,35.275973
AR,AR0023,AR023-002,SCOTT SEBASTIAN REGIONAL LIBRARY,18 N. ADAIR STREET,GREENWOOD,72936,SEBASTIAN,4799962856,NO,MJ,MO,Y,MC1,N,1/1/16,12/31/16,45799,41414,1,4,0,5,133265,0,1774,0,78,0,0,94,5435,82009,12392,25114,131103,45420,69,17,20535,311,05,00,00,00,-94.256968,35.21311
AR,AR0024,AR024-002,EAST CENTRAL ARKANSAS REGIONAL LIBRARY SYSTEM,410 MERRIMAN AVE E,WYNNE,72396,CROSS,8702383850,NO,MJ,MO,Y,MC1,N,1/1/16,12/31/16,28267,25561,1,4,0,12.5,47722,7916,2266,914,3260,0,6,87,10400,61708,6301,21378,67742,18690,392,47,22911,0,05,00,00,00,-90.789031,35.223909
AR,AR0025,AR025,WEST MEMPHIS PUBLIC LIBRARY,213 NORTH AVALON STREET,WEST MEMPHIS,72301,CRITTENDEN,8707327590,NO,CI,SO,Y,CI1,N,1/1/16,12/31/16,28259,25554,1,0,0,5,53944,5197,766,0,83,0,5,28,2414,19656,0,14492,27823,5032,142,16,12660,564,05,00,00,00,-90.193569,35.148193
AR,AR0026,AR026-003,ASHLEY COUNTY LIBRARY,211 EAST LINCOLN STREET,HAMBURG,71646,ASHLEY,8708532078,NO,CO,MO,Y,CO1,N,1/1/16,12/31/16,24209,21891,1,1,0,10,94767,1300,2797,0,3818,0,1,66,5174,62849,3985,15841,63225,10306,336,26,15807,0,05,00,00,00,-91.796071,33.225728
AR,AR0027,AR027-002,W.A. BILLINGSLEY/JACKSON COUNTY LIBRARY,213 WALNUT STREET,NEWPORT,72112,JACKSON,8705232952,NO,CO,MO,Y,CO1,N,1/1/16,12/31/16,18418,16655,1,1,0,3,43011,1650,708,0,672,0,1,59,3166,17439,2861,5047,19520,3812,143,19,8385,4472,05,00,00,00,-91.282609,35.605273
AR,AR0028,AR028-002,TEXARKANA PUBLIC LIBRARY,600 W. 3RD ST.,TEXARKANA,75501,BOWIE,9037942149,NO,CI,SO,Y,CI1,N,1/1/16,12/31/16,61230,55368,1,0,0,11,81253,216,3740,413,7440,0,5,57,3207,324860,10105,43254,190829,25714,246,18,31569,31043,05,00,00,00,-94.048079,33.420454
AR,AR0030,AR030-002,CONWAY COUNTY LIBRARY,101 WEST CHURCH STREET,MORRILTON,72110,CONWAY,5013545204,NO,CO,SO,Y,CO1,N,1/1/16,12/31/16,20336,18389,1,0,1,5,30525,5423,635,0,2159,0,0,29,2462,60125,6195,25025,64811,8827,134,13,0,0,05,00,00,00,-92.745484,35.151294
AR,AR0031,AR031-002,LAWRENCE COUNTY LIBRARY,115 WEST WALNUT STREET,WALNUT RIDGE,72476,LAWRENCE,8708863222,NO,CO,MO,Y,CO1,N,1/1/16,12/31/16,17774,16072,1,2,0,4,55975,963,1265,174,5345,0,8,90,5294,50672,5506,6138,72798,23470,385,30,10829,0,05,00,00,00,-90.955419,36.068927
AR,AR0037,AR037-002,FORREST CITY PUBLIC LIBRARY,421 SOUTH WASHINGTON STREET,FORREST CITY,72335,ST. FRANCIS,8706335646,NO,CI,MO,Y,CI1,N,1/1/16,12/31/16,14774,13360,1,1,0,3,16807,1523,1845,22,1324,35,1,24,2130,11076,1590,2904,11569,1715,150,11,4898,14820,05,00,00,00,-90.78412,35.006628
AR,AR0038,AR038-002,BENTONVILLE PUBLIC LIBRARY,405 SOUTH MAIN STREET,BENTONVILLE,72712,BENTON,4792713192,NO,CI,SO,Y,CI1,N,1/1/16,12/31/16,36601,33097,1,0,0,32,117574,21238,6306,5658,8434,263,28,200,3120,300766,0,27058,682164,325505,1229,85,27513,0,05,00,00,00,-94.208897,36.367769
AR,AR0039,AR0039-004,BAXTER COUNTY LIBRARY,300 LIBRARY HILL,MOUNTAIN HOME,72653,BAXTER,8705800987,NO,CO,MO,Y,CO1,N,1/1/16,12/31/16,40957,37036,1,1,0,17,95153,15970,3423,6048,6213,263,3,172,3730,187812,25757,49692,299073,71467,648,45,25842,10945,05,00,00,00,-92.387447,36.315001
AR,AR0040,AR018-001,MISSISSIPPI/CRITTENDEN REGIONAL LIBRARY,200 NORTH 5TH STREET,BLYTHEVILLE,72315,MISSISSIPPI,8707622431,NO,MJ,MO,Y,MC1,N,1/1/16,12/31/16,94511,85463,1,13,0,6,149559,5536,2580,0,633,0,0,206,14976,167703,51650,18661,86553,19402,341,75,60466,0,05,00,00,00,-89.907983,35.928581
AR,AR0041,AR022-002,LONOKE COUNTY LIBRARY SYSTEM,204 EAST 2ND STREET,LONOKE,72086,LONOKE,8555726657,NO,MJ,MO,Y,CO1,Y,1/1/16,12/31/16,62367,56396,0,6,0,20,107280,13741,6444,0,8358,0,3,80,9282,173195,145398,31702,173263,63881,2262,68,30324,52274,05,00,06,00,-91.898918,34.78526
AR,AR0042,AR0042,ARKANSAS COUNTY LIBRARY,2002 S. BUERKLE STREET,STUTTGART,72160,ARKANSAS,8709731966,NO,CO,MO,Y,CO1,N,1/1/16,12/31/16,20749,18763,1,2,0,7.25,63488,0,820,0,156,0,0,14,5564,39480,603,24432,20093,6963,391,23,15122,0,05,00,00,00,-91.558415,34.48266
AR,AR0043,AR0043-002,TRUMANN PUBLIC LIBRARY,1200 WEST MAIN,TRUMANN,72472,POINSETT,8704837744,NO,CI,SO,Y,CI1,N,1/1/16,12/31/16,7243,6550,1,0,0,1,14400,0,91,0,385,0,0,12,3000,7917,0,9654,6923,521,1,3,1902,0,05,00,00,00,-90.522628,35.67136
AR,AR0044,AR0044-002,BELLA VISTA PUBLIC LIBRARY,11 DICKENS PLACE,BELLA VISTA,72714,BENTON,4798551753,NO,OT,SO,Y,OTH,N,1/1/16,12/31/16,16582,14995,1,0,0,7,34907,21238,1237,6035,3132,263,5,36,3032,67677,749,6121,106096,19774,471,10,5828,0,05,00,00,00,-94.241469,36.475057
AR,AR0046,AR0046-003,SALINE COUNTY LIBRARY,1800 SMITHERS DRIVE,BENTON,72015,SALINE,5017784766,NO,CO,MO,Y,CO1,N,1/1/16,12/31/16,107118,96863,1,1,0,35,127575,9947,11050,2950,13253,0,38,106,5824,284894,36299,69629,483678,115024,674,70,28103,21954,05,00,00,00,-92.569787,34.580651
AR,AR0047,AR0047-001,ROGERS PUBLIC LIBRARY,711 S. DIXIELAND ROAD,ROGERS,72758,BENTON,4796211152,NO,CI,SO,Y,CI1,N,1/1/16,12/31/16,38829,35112,1,0,0,32.4,141318,15971,8995,12961,10185,241,22,191,3392,205520,51744,44294,407242,146004,980,70,21474,85592,05,00,00,00,-94.143738,36.32811
AR,AR0048,AR0048-001,CRAWFORD COUNTY LIBRARY SYSTEM,1409 MAIN ST.,VAN BUREN,72956,CRAWFORD,4794713226,NO,CO,MO,Y,CO1,N,1/1/16,12/31/16,54247,49054,1,5,0,19.9,139718,15386,8710,9418,8206,245,4,11,13728,357789,4483,34028,258601,59224,1720,57,28420,0,05,00,00,00,-94.343831,35.436628
AR,AR0049,AR0049-001,CARROLL AND MADISON LIBRARY SYSTEM,106 SPRING STREET,BERRYVILLE,72616,CARROLL,8704235300,NO,MJ,MA,Y,MC1,N,1/1/16,12/31/16,43509,39344,1,6,0,15,119177,29812,8881,6174,21206,211,3,162,16877,295791,18667,27600,338817,80278,1902,51,47030,0,05,00,00,00,-93.568217,36.363585
AR,AR0050,AR0050-001,BOONE COUNTY LIBRARY,221 W. STEPHENSON AVE,HARRISON,72601,BOONE,8707415913,NO,CO,SO,Y,CO1,N,1/1/16,12/31/16,37222,33659,1,0,0,9,81876,24719,2968,4551,6000,223,9,38,2704,130018,34398,26757,168775,86007,263,38,20771,9042,05,00,00,00,-93.109661,36.229818
AR,AR0051,AR0051-001,NEWTON COUNTY,230 S. STONE,JASPER,72641,NEWTON,8704462983,NO,CO,SO,Y,CO1,N,1/1/16,12/31/16,8330,7533,1,0,0,3.5,17290,20418,981,4531,1848,223,0,13,2224,11984,2504,1056,24358,4345,95,5,3506,2401,05,00,00,00,-93.185487,36.004232
AR,AR0060,AR0028,CLARK COUNTY LIBRARY,609 CADDO STREET,ARKADELPHIA,71923,CLARK,8702462271,NO,CO,MO,Y,CO1,N,1/1/16,12/31/16,23546,21292,1,1,0,4,52489,655,524,0,833,0,0,46,2830,11426,0,10290,29656,9534,60,6,3413,0,05,00,00,00,-93.054033,34.120954
AR,AR0061,AR0061-001,LAFAYETTE COUNTY LIBRARY,219 E. THIRD STREET,LEWISVILLE,71845,LAFAYETTE,8709214757,NO,CO,MO,Y,CO1,N,1/1/16,12/31/16,8027,7259,1,1,0,4.88,-1,-1,1034,-1,1877,-1,-1,36,4163,31517,5363,5845,0,0,198,15,8785,-1,05,00,00,00,-93.575622,33.357174
AR,AR0062,AR0062,OUACHITA MOUNTAINS REGIONAL LIBRARY,145A WHITTINGTON STREET,MOUNT IDA,71957,MONTGOMERY,8708673812,NO,CO,MA,Y,CO1,N,1/1/16,12/31/16,29052,26271,1,2,0,2,53388,0,1424,0,5590,0,2,26,5512,37896,9550,17999,69196,9893,14,13,12125,10435,05,00,00,00,-93.633059,34.556329
AR,AR0063,AR0063,PUBLIC LIBRARY OF CAMDEN & OUACHITA COUNTY,405 CASH RD,CAMDEN,71701,OUACHITA,8708365083,NO,CO,MO,Y,CO2,N,1/1/16,12/31/16,28790,26034,1,2,0,3,20169,0,868,0,0,0,0,34,3410,24385,4814,16103,44784,9935,33,12,12405,0,05,00,00,00,-92.851366,33.591646
AR,AR0064,AR0064,CALHOUN COUNTY LIBRARY,113 SOUTH 2ND ST.,HAMPTON,71744,CALHOUN,8707984492,NO,CO,MO,Y,CO1,N,1/1/16,12/31/16,5559,5027,1,1,0,1,36000,1358,0,201,0,0,0,5,1640,2313,1300,338,3683,1116,21,5,733,624,05,00,00,00,-92.47168,33.537666
AR,AR0066,AR0066,FAYETTEVILLE PUBLIC LIBRARY,401 W. MOUNTAIN STREET,FAYETTEVILLE,72701,WASHINGTON,4798567000,NO,CI,SO,Y,CI1,N,1/1/16,12/31/16,78960,71401,1,0,0,45.9,239351,28140,14170,12930,24121,281,22,296,3214,604267,82640,90319,1123345,328623,1180,143,104813,170146,05,00,00,00,-94.164863,36.061973
AR,AR0068,AR0065,PEA RIDGE COMMUNITY LIBRARY,801 N CURTIS,PEA RIDGE,72751,BENTON,4794518442,NO,CI,SO,Y,CI1,N,1/1/16,12/31/16,2346,2121,1,0,0,2,14000,0,55,0,100,0,0,0,0,0,0,0,11000,2000,10,6,1200,0,05,00,00,07,-94.115367,36.448813
AR,AR0069,AR0067-01,GRAVETTE PUBLIC LIBRARY,119 MAIN STREET SE,GRAVETTE,72736,BENTON,4797876955,NO,CI,SO,Y,CI1,N,1/1/16,12/31/16,2800,2532,1,0,0,1,13515,1767,762,810,730,2,0,0,2200,6853,0,1772,6654,1312,7,18,2596,0,05,00,00,00,-94.441307,36.423354
AR,AR0070,AR0069,JIM G. FERGUSON SEARCY COUNTY LIBRARY,202 EAST MAIN STREET,MARSHALL,72650,SEARCY,8704482420,NO,CO,SO,Y,CO1,N,1/1/16,12/31/16,8195,7410,1,0,0,5.7,-1,-1,720,-1,0,-1,-1,28,2082,9331,538,4615,0,0,202,24,8968,-1,05,00,00,00,-92.629491,35.909095
AR,AR0071,AR0071,"FAIRFIELD BAY LIBRARY, INCORPORATED",369 DAVE CREEK PARKWAY,FAIRFIELD BAY,72088,VAN BUREN,-4,NO,OT,SO,Y,OTH,N,1/1/16,12/31/16,2460,2224,1,1,0,1,9731,0,36,0,27,0,0,4,2470,13822,3002,480,18703,1462,2,5,6000,4680,05,00,00,00,-92.262742,35.610581
AR,AR0076,AR0081,HEMPSTEAD COUNTY LIBRARY,500 SOUTH ELM STREET,HOPE,71801,HEMPSTEAD,8707774564,HQ,CO,SO,Y,CO1,N,1/1/16,12/31/16,22000,19894,1,0,0,2,34067,1497,689,115,290,0,0,23,2058,27343,4764,8351,31534,2523,23,4,1874,0,05,00,00,00,-93.592042,33.66454
AR,AR0077,AR0072,GENTRY PUBLIC LIBRARY,105 E MAIN ST,GENTRY,72734,BENTON,4797362054,HQ,CI,SO,Y,CI2,N,1/1/16,12/31/16,3540,3201,1,0,0,2,13140,704,562,0,1125,0,1,0,2444,14419,38,3134,16237,2345,165,6,3536,0,05,00,00,00,-94.484643,36.267533
AR,AR0078,AR0078,IVA JANE PEEK LIBRARY HQ,121 N. MAIN STREET,DECATUR,72722,BENTON,4797527323,NO,CI,SO,Y,CI1,N,1/1/16,12/31/16,1699,1536,1,0,0,1,8885,0,126,0,648,0,0,5,1013,2658,19,1063,3095,733,13,15,2229,5928,05,00,00,00,-94.460726,36.335891
AR,AR0079,AR0084,SILOAM SPRINGS PUBLIC LIBRARY HQ,401 WEST UNIVERSITY STREET,SILOAM SPRINGS,72761,BENTON,4795244236,HQ,CI,SO,Y,CI1,N,1/1/16,12/31/16,15000,13564,1,0,0,5,47097,16854,2676,5512,3877,263,1,25,2718,109672,6,13107,126177,30411,283,26,15367,4160,05,00,00,00,-94.545142,36.186328
AR,AR0080,AR0080-01,SULPHUR SPRINGS PUBLIC LIBRARY HQ,512 BLACK ST.,SULPHUR SPRINGS,72768,BENTON,4792983753,NO,CI,SO,Y,CI1,N,1/1/16,12/31/16,511,462,1,0,0,0.29,-1,-1,75,-1,145,-1,-1,2,1672,2044,443,467,0,0,9,2,603,-1,05,00,00,00,-94.460826,36.481658
AR,AR0081,AR0081-01,TRI-COUNTY REGIONAL LIBRARY SYSTEM,200 W. STILWELL AVE.,DE QUEEN,71832,SEVIER,8705844364,HQ,MJ,MA,Y,MC2,N,1/1/16,12/31/16,43458,39298,1,11,0,19,148231,142,3455,0,7481,0,0,116,13948,59679,11325,23248,106330,23271,197,69,20891,2091,05,00,00,00,-94.339187,34.036769
AR,AR0082,-1,INDEPENDENCE COUNTY LIBRARY,368 EAST MAIN STREET,BATESVILLE,72501,INDEPENDENCE,8707938814,NO,CO,SO,Y,CO1,N,1/1/16,12/31/16,37168,33610,0,1,0,6,-1,-1,2999,-1,5543,-1,-1,115,1957,114185,18514,19471,-1,51775,497,35,26878,-1,05,04,00,00,-91.651526,35.771501
